"stop_id","stop_code","stop_name","stop_desc","stop_lat","stop_lon","zone_id","stop_url","location_type","parent_station","stop_timezone","wheelchair_boarding"
"1","A00000","TERMINALBUS","","42.3446209999987","13.40114999999855","","","0","","",""
"2","A00001","TERMINALBUS 1","","42.34447099999871","13.40110999999855","","","0","","",""
"3","A00002","TERMINALBUS 2","","42.344400999998705","13.401299999998551","","","0","","",""
"4","A00070","VALE CRISPI lato Emiciclo Regionale","","42.34573601633166","13.397401998311812","","","0","","",""
"5","A00080","VIALE CRISPI lato Parco della Memoria","","42.3453250196938","13.39702395527654","","","0","","",""
"6","A00100","VIALE CRISPI lato via Piave","","42.34409049560432","13.396456584820116","","","0","","",""
"7","A00110","VIALE CRISPI lato Cristo Re","","42.34398546556318","13.396287596654393","","","0","","",""
"8","A00120","VIALE CRISPI Porta Napoli fro XXIV Maggio","","42.342343915940525","13.395375641320602","","","0","","",""
"9","A00130","VIALE CRISPI Porta Napoli lat XXIV Maggio","","42.34216747708171","13.395413148437365","","","0","","",""
"10","A00140","VIALE COLLEMAGGIO lato Emiciclo Regione","","42.344144009604534","13.397797655874404","","","0","","",""
"11","A00150","VIALE COLLEMAGGIO fronte Emiciclo Regione","","42.344032978737765","13.398114170535088","","","0","","",""
"12","A00160","VIA CALDORA fronte Collemaggio","","42.34359691485727","13.401901451496043","","","0","","",""
"13","A00170","VIA CALDORA lato Collemaggio","","42.34416185136857","13.402121319295647","","","0","","",""
"14","A00180","Via Strinella Porta Bazzano lato Porta","","42.34670923684995","13.402703390360157","","","0","","",""
"15","A00190","Via Strinella Porta Bazzano fronte Porta","","42.34680049178379","13.403293532352306","","","0","","",""
"16","A00200","Via Strinella fronte traversa Via Teramo","","42.34820397602384","13.40513884164645","","","0","","",""
"17","A00210","Via Strinella lato traversa Via Teramo","","42.34791850471563","13.40479021746108","","","0","","",""
"18","A00220","VIA STRINELLA fronte Parco Unicef","","42.35024180090732","13.406219833853381","","","0","","",""
"19","A00230","VIA STRINELLA lato Parco Unicef","","42.3500296305465","13.406045386314922","","","0","","",""
"20","A00240","Via Strinella lato parcheggio","","42.352380999998736","13.406869999998579","","","0","","",""
"21","A00250","Via Strinella fronte parcheggio","","42.353010999998745","13.407179999998577","","","0","","",""
"22","A00260","STRINELLA 88 Via Pescara","","42.35370099999874","13.407879999998581","","","0","","",""
"23","A00270","Via Strinella - questura - Strinella 88","","42.353816704572715","13.407306028146767","","","0","","",""
"24","A00275","Via San Bernardino -Via Panfilo Tedeschi","","42.34987599999872","13.402967999998559","","","0","","",""
"25","A00310","Fontana Luminosa Auditorium Castello","","42.353807765071","13.401791459252003","","","0","","",""
"26","A00340","Viale Gran Sasso lato Castello","","42.355345848469554","13.403878190700846","","","0","","",""
"27","A00350","Viale Gran Sasso lato Stadio Fattori","","42.355724438450444","13.404918903623615","","","0","","",""
"28","A00360","VIALE CROCE ROSSA Stadio Fattori C.Rossa","","42.35751026392982","13.404031040418003","","","0","","",""
"29","A00370","Viale Croce Rossa bivio Via Moscardelli","","42.357528113007994","13.403883543062426","","","0","","",""
"30","A00380","VIALE CROCE ROSSA bivio Viale Ovidio","","42.35699495500082","13.401284482292123","","","0","","",""
"31","A00390","VIALE CROCE ROSSA bv. Via Monte Camicia","","42.3570109999987","13.39877999999854","","","0","","",""
"32","A00400","Viale Croce Rossa lato Porta Branconio","","42.35651099999869","13.396199999998528","","","0","","",""
"33","A00410","VIALE CROCE ROSSA bivio Valle Pretara","","42.35669099999868","13.395059999998525","","","0","","",""
"34","A00420","Viale Croce Rossa bivio Via Vicentini","","42.356610999998665","13.391549999998505","","","0","","",""
"35","A00430","VIALE CROCE ROSSA bivio Via San Sisto","","42.35706099999867","13.3904099999985","","","0","","",""
"36","A00450","VIA XX SETTEMBRE fronte Tribunale","","42.353902911635636","13.390011147853423","","","0","","",""
"37","A00460","VIA XX SETTEMBRE lato Tribunale","","42.35436099458575","13.38962997568499","","","0","","",""
"38","A00470","VIA XX SETTEMBRE lato Villa Gioia","","42.35255099999866","13.390409999998498","","","0","","",""
"39","A00480","VIA XX SETTEMBRE fronte Villa Gioia","","42.351730999998665","13.390899999998501","","","0","","",""
"40","A00490","VIA XX SETTEMBRE Fontesecco lato Rivera","","42.350250999998664","13.392209999998506","","","0","","",""
"41","A00500","VIA XX SETTEMBRE Fontesecco lato Centro","","42.349807999998674","13.392443999998509","","","0","","",""
"42","A00510","Via XX Settembre lato San Francesco Di Paola","","42.34724803694589","13.39428997116517","","","0","","",""
"43","A00520","Via XX Settembre lato Via Sant'Andrea","","42.347133016595365","13.394320943635977","","","0","","",""
"44","A00530","Via XX Settembre lato Sant' Agostino","","42.34646699999869","13.396159999998524","","","0","","",""
"45","A00540","Via XX Settembre lato Parco della Memoria","","42.34623603037639","13.396584999378076","","","0","","",""
"46","A00570","Viale Giovanni XXIII fronte San Domenico","","42.352700999998675","13.393109999998513","","","0","","",""
"47","A00580","Viale Giovanni XXIII lato San Domenico","","42.35280099999867","13.393249999998513","","","0","","",""
"48","A00590","Viale Duca Degli Abruzzi lato Don Bosco","","42.35415099999868","13.39500999999852","","","0","","",""
"49","A00600","Viale Duca Degli Abruzzi lato San Pietro","","42.35425099999867","13.395179999998522","","","0","","",""
"50","A00610","Viale Duca Degli Abruzzi lato Univaq","","42.3552309999987","13.398929999998542","","","0","","",""
"51","A00620","Viale Duca Degli Abruzzi fronte Univaq","","42.3551309999987","13.399199999998544","","","0","","",""
"52","A00630","VIALE GRAN SASSO rotonda F.Luminosa","","42.35505352656107","13.402805314540467","","","0","","",""
"53","A00650","Viale Tagliacozzo 1° fermata","","42.355361719537186","13.4062680780043","","","0","","",""
"54","A00655","Viale Tagliacozzo 2° fermata","","42.35239740546936","13.4052729593031","","","0","","",""
"55","A00660","VIA PANELLA lato caserma","","42.35517049815539","13.40736108037071","","","0","","",""
"56","A00670","VIA PANELLA lato Questura","","42.35510099999873","13.40733999999858","","","0","","",""
"57","A01500","Quattro Cantoni - Via San Bernardino","","42.35065900104181","13.400023851534138","","","0","","",""
"58","B00010","VIA CELANO lato Via Castel di Sangro","","42.34360099999876","13.408709999998585","","","0","","",""
"59","B00020","VIA CELANO fronte Via Castel di Sangro","","42.34346099999873","13.408409999998584","","","0","","",""
"60","B00030","VIA CELANO Collefiorito Via Giulianova","","42.34274099999875","13.408749999998586","","","0","","",""
"61","B00040","VIA CELANO fronte Via Giulianova","","42.342977999998745","13.409255999998587","","","0","","",""
"62","B00050","VIA CELANO fronte Via dei Ciocca","","42.34446299999874","13.410692999998595","","","0","","",""
"63","B00060","VIA CELANO  lato Via dei Ciocca","","42.34445099999875","13.410799999998595","","","0","","",""
"64","B00070","MATTEO DA LEONESSA fronte chiesa","","42.34545099999876","13.4119299999986","","","0","","",""
"65","B00080","MATTEO DA LEONESSA lato chiesa","","42.34500099999877","13.412149999998602","","","0","","",""
"66","B00090","Via Abruzzo lato Via Ateleta Via Barrea","","42.34534099999877","13.414719999998615","","","0","","",""
"67","B00100","Via Abruzzo front Via Ateleta Via Barrea","","42.34551099999877","13.415099999998615","","","0","","",""
"68","B00110","Via Scuola della Torretta lato scuola","","42.34662299999879","13.416781999998621","","","0","","",""
"69","B00120","Via del Torcituro Scuola della Torretta","","42.34660099999878","13.416959999998625","","","0","","",""
"70","B00130","Via del Torcituro fronte Cimitero","","42.35031099999879","13.416949999998621","","","0","","",""
"71","B00140","Via del Torcituro lato Cimitero","","42.350815589503796","13.416750090934757","","","0","","",""
"72","B00150","SS17 bis lato cimitero L'Aquila","","42.352280999998776","13.413539999998608","","","0","","",""
"73","B00170","PIAZZALE CENCIONI stadio Gran Sasso A","","42.35190980667407","13.411608293590882","","","0","","",""
"74","B00180","PIAZZALE CENCIONI stadio Gran Sasso R","","42.3518702153587","13.411474278273063","","","0","","",""
"75","B00190","Via Della Crocetta - lato edicola","","42.34605099999875","13.410799999998595","","","0","","",""
"76","B00200","Via Della Crocetta - fronte edicola","","42.346480999998754","13.410689999998594","","","0","","",""
"77","B00210","Via della Polveriera lato scuole","","42.349360999998794","13.417229999998625","","","0","","",""
"78","B00220","Via della Polveriera fronte scuole","","42.34903099999878","13.416979999998626","","","0","","",""
"79","B00230","Via della Polveriera lato via Macchiole","","42.346250999998794","13.41837999999863","","","0","","",""
"80","B00240","Via della Polveriera front via Macchiole","","42.346230999998795","13.418259999998629","","","0","","",""
"81","B00250","Via della Polveriera fermata lato Est","","42.34451099999878","13.41842999999863","","","0","","",""
"82","B00260","Via della Polveriera fermata lato Ovest","","42.34446099999879","13.418359999998628","","","0","","",""
"83","B00270","Via della Polveriera capolinea","","42.34252099999879","13.417239999998625","","","0","","",""
"84","B00290","SS17 bis lato Via Polveriera","","42.35163099999879","13.417779999998626","","","0","","",""
"85","B00310","Via tre Vasche lato via Santa Veronica","","42.352380999998815","13.421709999998646","","","0","","",""
"86","B00320","Via Tre Vasche fonte Via Valle Gignano","","42.35186099999882","13.42552999999866","","","0","","",""
"87","B00330","Gignano piazza","","42.351010999998834","13.428429999998675","","","0","","",""
"88","B00340","Via Bazzanese prima 1. cavalcavia","","42.3451451936512","13.432327117824322","","","0","","",""
"89","B00350","Via Bazzanese dopo 1. cavalcavia","","42.345905999998855","13.433189999998694","","","0","","",""
"90","B00360","Via Bazzanese","","42.34723099999885","13.432139999998691","","","0","","",""
"91","B00370","Via bazzanese bv.tangenziale","","42.35031099999885","13.430769999998686","","","0","","",""
"92","B00380","SS17 bis lato via della Collina","","42.355080999998826","13.42585999999866","","","0","","",""
"93","B00390","SS17 bis fronte via della Collina","","42.35478099999882","13.42552999999866","","","0","","",""
"94","B00400","SS17 bis lato via Vasca Penta","","42.35646099999885","13.428829999998676","","","0","","",""
"95","B00410","SS17 bis fronte via Vasca Penta","","42.35660743412378","13.428954150781511","","","0","","",""
"96","B00420","SS17 bis Vasca Penta dir. L'Aquila","","42.35823099999884","13.42977999999868","","","0","","",""
"97","B00430","SS17 bis casello A24 lato uscita","","42.36285099999885","13.429279999998677","","","0","","",""
"98","B00440","SS17 bis casello A24 fronte uscita","","42.36335099999884","13.429329999998679","","","0","","",""
"99","B00450","SS17 bis lato strada vic. Sant' Antimo","","42.364750999998854","13.431359999998687","","","0","","",""
"100","B00460","SS17 bis fronte strada vic. Sant' Antimo","","42.36495099999885","13.43147999999869","","","0","","",""
"101","B00470","SS17 bis lato via Savini","","42.3525609999988","13.419519999998636","","","0","","",""
"102","B00480","VIA SAVINI lato Conservatorio","","42.35276099999879","13.418309999998629","","","0","","",""
"103","B00490","ACQUA&SAPONE/JOE POTATO Via Durini","","42.35456099999877","13.414949999998615","","","0","","",""
"104","B00500","COLLE SAPONE Scuole","","42.355725429055646","13.412346594591698","","","0","","",""
"105","B00520","VIA DE GASPERI Torrione monumento","","42.356794780258866","13.406952750076181","","","0","","",""
"106","B00525","Strada vicinale Colle Sapone dirAcquasan","","42.35682299999876","13.412878999998604","","","0","","",""
"107","B00530","VIA DE GASPERI edicola incr Via Urbani","","42.3571852577992","13.407625896680994","","","0","","",""
"108","B00550","Viale de Gasperi lato scuole","","42.35871342135685","13.409433726504378","","","0","","",""
"109","B00560","Viale De Gasperi lato farmacia comunale","","42.35897204333619","13.409990262892736","","","0","","",""
"110","B00570","Via Moschino lato Via Feneziani","","42.36086377373347","13.41151509260482","","","0","","",""
"111","B00580","Via Moschino lato Piazza Bolivar","","42.36083707136176","13.411492329117735","","","0","","",""
"112","B00590","COLLE CAPOCROCE Titta Rosa- scuola","","42.36099167035024","13.41355155761887","","","0","","",""
"113","B00600","COLLE CAPOCROCE Titta Rosa fronte scuola DISMESSA","","42.360930999998764","13.41337999999861","","","0","","",""
"114","B00610","Via Scarfoglio lato via Vastarini Cresi","","42.35875202523445","13.412101239480648","","","0","","",""
"115","B00630","Via Scarfoglio fronte Via Paris","","42.35806821462169","13.411145716304842","","","0","","",""
"116","B00650","Via Urbani lato Caserma Rossi","","42.35740099999874","13.408749999998586","","","0","","",""
"117","B00670","VIA VOLTA fronte Enel","","42.360250999998755","13.408899999998585","","","0","","",""
"118","B00680","VIA VOLTA lato Enel","","42.36033099999874","13.408809999998587","","","0","","",""
"119","B00690","Via Cardinale Mazzarino lato ex-Onpi","","42.36161099999874","13.407909999998582","","","0","","",""
"120","B00700","Via Cardinale Mazzarino fronte ex-Onpi","","42.36170099999873","13.407979999998583","","","0","","",""
"121","B00710","Via San Giacomo fronte via Santucci","","42.363300999998756","13.40957999999859","","","0","","",""
"122","B00720","Via San Giacomo lato via Santucci","","42.36335099999875","13.40972999999859","","","0","","",""
"123","B00730","Via San Giacomo lato via F. Jovane","","42.365920999998764","13.412539999998604","","","0","","",""
"124","B00740","Via San Giacomo fronte via F. Jovane","","42.366130999998774","13.413779999998608","","","0","","",""
"125","B00750","Via San Giacomo lato centro sociale","","42.36729099999879","13.417239999998625","","","0","","",""
"126","B00760","Via San Giacomo fronte centro sociale","","42.36728099999879","13.417759999998625","","","0","","",""
"127","B00770","San Giacomo piazza fronte chiesa","","42.3685309999988","13.419719999998637","","","0","","",""
"128","B00780","San Giacomo piazza lato chiesa","","42.36855099999879","13.420099999998639","","","0","","",""
"129","B00790","Via Fontegrossa San Giacomo lato civ. 26","","42.3708909999988","13.422039999998647","","","0","","",""
"130","B00800","Via Fontegrossa San Giacomo fro. civ. 26","","42.3702509999988","13.421249999998643","","","0","","",""
"131","B00810","Via Fontegrossa lato civ. 28","","42.37060099999882","13.424379999998658","","","0","","",""
"132","B00820","Via Fontegrossa fronte civ. 28","","42.37041099999881","13.42445999999866","","","0","","",""
"133","B00830","Via Fontegrossa fro. via ColleSaponeAlta","","42.37145099999882","13.426179999998665","","","0","","",""
"134","B00840","Via Fontegrossa lato via ColleSaponeAlta","","42.37118099999882","13.426639999998669","","","0","","",""
"135","B00850","FONTEGROSSA Capolinea","","42.37425099999883","13.425659999998663","","","0","","",""
"136","B00860","VIA COLAGRANDE lato Fontanelle","","42.361130999998736","13.407509999998583","","","0","","",""
"137","B00870","VIA COLAGRANDE fronte Fontanelle","","42.361060999998735","13.407359999998581","","","0","","",""
"138","B00880","VIA COLAGRANDE lato farmacia","","42.36156642391568","13.405128120958349","","","0","","",""
"139","B00890","VIA COLAGRANDE fronte farmacia","","42.3611025986735","13.406045492659597","","","0","","",""
"140","B00910","SAN FRANCESCO PIAZZA T.Da Celano lt.Nord","","42.362309080079214","13.404988628208477","","","0","","",""
"141","B00940","Via F.P.Tosti fronte via Gualtieri","","42.36270099999873","13.403879999998562","","","0","","",""
"142","B00950","Via F.P.Tosti lato via Gualtieri","","42.36325099999872","13.404109999998564","","","0","","",""
"143","B00960","Via F.P.Tosti Vicinale Paganica lato est","","42.36541099999871","13.401909999998557","","","0","","",""
"144","B00970","Via F.P.Tosti Vicinale Paganica lt ovest","","42.365610999998715","13.401629999998555","","","0","","",""
"145","B01010","Via Piemonte lato via Luigi Polacchi","","42.34188099999881","13.419449999998633","","","0","","",""
"146","B01020","CASE GIGNANO","","42.3433609999988","13.421029999998641","","","0","","",""
"147","B01030","Via Piemonte fronte via Luigi Polacchi","","42.34188099999881","13.419309999998632","","","0","","",""
"148","B01040","SS17 bis fronte Via Polveriera","","42.35184099999879","13.417369999998625","","","0","","",""
"149","B01050","Via Grotta di Navarra fronte Via Umbria","","42.34980099999882","13.424659999998656","","","0","","",""
"150","B01060","Via Grotta di Navarra lato Via Umbria","","42.34975099999881","13.424599999998659","","","0","","",""
"151","B01070","Via Marche bv. via V. d' Aosta Gignano","","42.34831099999882","13.424949999998658","","","0","","",""
"152","B01080","Via Cappuccini Marche fondo.Imm. Gignano","","42.347130999998825","13.42554999999866","","","0","","",""
"153","B01090","Via Valle d' Aosta Marche Gignano","","42.346880999998824","13.424049999998655","","","0","","",""
"154","B01100","Via Valle d' Aosta Marche scuole Gignano","","42.34781099999881","13.423409999998652","","","0","","",""
"155","B01110","VIA SAVINI fronte Conservatorio","","42.35303099999879","13.418199999998631","","","0","","",""
"156","B01120","Via Savini Acqua&Sapone","","42.35506099999878","13.415759999998619","","","0","","",""
"157","B01130","VIA SILONE dir. Via Scarfoglio","","42.35857762556792","13.413567733946127","","","0","","",""
"158","B01140","VIA SILONE dir. via Savini","","42.3584418358183","13.413764218954897","","","0","","",""
"159","B01150","Via Scarfoglio fronte Via Puccini","","42.359255486770714","13.412819315809521","","","0","","",""
"160","B01155","VIA PUCCINI Giacomo","","42.35960427124758","13.412623535251457","","","0","","",""
"161","B01160","Via Scarfoglio lato Via Puccini DISMESSA","","42.359411990817584","13.412993754777743","","","0","","",""
"162","B01180","CIRCUITO COLLEMAGGIO fronte Collemagg","","42.34273099999874","13.407419999998579","","","0","","",""
"163","B01190","Via della Polveriera fronte cimitero","","42.35086099999878","13.416829999998622","","","0","","",""
"164","B01200","Via Cardinale Mazzarino Torrione monumen","","42.35668081414953","13.406632157575086","","","0","","",""
"165","B01210","PIAZZA SAN PIO X - Torrione","","42.358730999998734","13.406329999998574","","","0","","",""
"166","B01220","VIA SILONE lato scuole Collesapone","","42.35686099999878","13.415539999998616","","","0","","",""
"167","B01225","VIA SILONE fronte Scuole","","42.35692099999878","13.41565999999862","","","0","","",""
"168","B01230","VIA COLLE SAPONE RETRO DANTE","","42.35697099999876","13.411029999998599","","","0","","",""
"169","C00010","BV. MARTINI SS615 Via Ponte Rasarolo","","42.34052741972095","13.399354703387752","","","0","","",""
"170","C00020","BV. MARTINI fronte SS615 Via Ponte Rasarolo","","42.34061363499259","13.399073071006239","","","0","","",""
"171","C00030","SR615 Via Ponte Rasarolo PL dir.Martini","","42.33909099999872","13.39916999999854","","","0","","",""
"172","C00040","SR615 Via Ponte Rasarolo PL dr.Mausonia","","42.3380309999987","13.400579999998545","","","0","","",""
"173","C00050","SR615 lato ristorante dir.Martini","","42.33568099999872","13.40308999999856","","","0","","",""
"174","C00060","SR615 fronte ristorante dir.Martini","","42.336110999998716","13.402369999998555","","","0","","",""
"175","C00070","SR615 lato Via Colleverde","","42.33265099999871","13.40320999999856","","","0","","",""
"176","C00080","SR615 fronte Via Colleverde","","42.33274099999872","13.402989999998558","","","0","","",""
"177","C00090","MAUSONIA s.p.120 malepasso","","42.33290099999871","13.40095999999855","","","0","","",""
"178","C00100","MAUSONIA s.p.120 malepasso","","42.33502099999869","13.398739999998538","","","0","","",""
"179","C00110","MAUSONIA incr. ss.615 s.p.120 maus.","","42.34589099999865","13.388829999998492","","","0","","",""
"180","C00115","s.p.120 maus verso.ss.615 dir.pianola","","42.340668999998655","13.390035999998497","","","0","","",""
"181","C00120","MAUSONIA incr.ss.615 s.p.120","","42.34615099999864","13.388889999998494","","","0","","",""
"182","C00125","s.p.120 maus verso.ss.615 dir.615","","42.34147699999865","13.389964999998497","","","0","","",""
"183","C00130","Via Mausonia fronte Irish Pub Totani","","42.33194099999873","13.40329999999856","","","0","","",""
"184","C00140","Via Mausonia lato Irish Pub Totani","","42.331555999998734","13.404543999998566","","","0","","",""
"185","C00150","MAUSONIA lato Via Codalunga","","42.32993099999875","13.408549999998584","","","0","","",""
"186","C00160","MAUSONIA fronte Via Codalunga","","42.33018099999875","13.40809999999858","","","0","","",""
"187","C00170","Via Mausonia fronte Via della Poiana","","42.32776099999875","13.409879999998589","","","0","","",""
"188","C00180","Via Mausonia lato Via della Poiana","","42.327130999998765","13.41020999999859","","","0","","",""
"189","C00190","Via Mausonia F.Augelli fronte via Nibbio","","42.32528099999875","13.412159999998599","","","0","","",""
"190","C00200","Via Mausonia F.Augelli lato via Nibbio","","42.32498099999877","13.412929999998605","","","0","","",""
"191","C00210","Via Mausonia Fonte Mortale lat Via Centi","","42.32300099999879","13.417959999998626","","","0","","",""
"192","C00220","Via Mausonia Fonte Mortale fro Via Centi","","42.32264099999879","13.418119999998627","","","0","","",""
"193","C00230","Via Mausonia Inciampa LaNotte lato Arcob","","42.320350999998816","13.422109999998645","","","0","","",""
"194","C00240","Via Mausonia Inciampa LaNotte fron Arcob","","42.3201109999988","13.422199999998645","","","0","","",""
"195","C00250","Via Marsicana incrocio Mausonia / SS5bis","","42.31830099999884","13.429249999998675","","","0","","",""
"196","C00260","SS5bis incrocio Via Mausonia lato chiesa","","42.32016099999884","13.42762999999867","","","0","","",""
"197","C00270","SS5bis fronte via Cippari - Esperita","","42.32645099999881","13.421909999998643","","","0","","",""
"198","C00280","SS5bis lato via Cippari - Esperita","","42.32673099999882","13.421809999998642","","","0","","",""
"199","C00290","SS5bis lat via Fonte Augelli c.da Ciocca","","42.33131099999879","13.417579999998622","","","0","","",""
"200","C00300","SS5bis fro via Fonte Augelli c.da Ciocca","","42.33163099999879","13.417489999998624","","","0","","",""
"201","C00310","SS5bis Miraflores lato via San Cipriano","","42.334100999998775","13.415309999998614","","","0","","",""
"202","C00320","SS5bis Miraflores front via San Cipriano","","42.33416099999879","13.415429999998615","","","0","","",""
"203","C00330","SS5bis lato quartiere Bellavista","","42.336400999998766","13.412709999998604","","","0","","",""
"204","C00340","SS5bis fronte quartiere Bellavista","","42.33709099999875","13.411379999998596","","","0","","",""
"205","C00350","Via Codalunga bellavista","","42.33595099999875","13.409739999998589","","","0","","",""
"206","C00360","Via Codalunga bellavista","","42.33671099999876","13.409909999998591","","","0","","",""
"207","C00370","Via Codalunga c.da pizzutilli","","42.332820999998766","13.41026999999859","","","0","","",""
"208","C00380","Via Codalunga c.da pizzutilli","","42.33323099999874","13.409879999998589","","","0","","",""
"209","C00390","SS17 Via Porta Napoli lato Parco Sole","","42.34057403116418","13.400235799726431","","","0","","",""
"210","C00400","SS17 dopo bv.Martini fronte Parco Sole","","42.3404372008661","13.400414195003233","","","0","","",""
"211","C00410","SS17 Via Porta Napoli lato Cantoniera","","42.3397234616557","13.405046347687797","","","0","","",""
"212","C00420","SS17 Via Porta Napoli fronte Cantoniera","","42.33949257171508","13.40564978819262","","","0","","",""
"213","C00430","SS17 lato bivio SS 5bis","","42.33916099999875","13.409279999998589","","","0","","",""
"214","C00440","SS17 bv. Avezzano","","42.339310999998744","13.40987999999859","","","0","","",""
"215","C00450","SS17 S.Elia fronte bivio Via Polveriera","","42.33731099999878","13.41645999999862","","","0","","",""
"216","C00460","SS17 S.Elia lato bivio Via Polveriera","","42.337370999998775","13.417059999998623","","","0","","",""
"217","C00470","SS17 fronte chiesa Sant'Elia","","42.336280999998806","13.420709999998639","","","0","","",""
"218","C00480","SS17 S.Elia entrata/uscita f. lato Nord","","42.33567099999883","13.424249999998654","","","0","","",""
"219","C00490","SS17 S.Elia entrata/uscita f. lato Sud","","42.335110999998825","13.42557999999866","","","0","","",""
"220","C00500","SS17 S.Elia fronte C.da Loretuccio","","42.33498099999884","13.429829999998681","","","0","","",""
"221","C00510","SS17 S.Elia lato C.da Loretuccio","","42.33476099999884","13.429499999998676","","","0","","",""
"222","C00520","SS17 lato bivio Via Collevernesco","","42.335030999998864","13.435149999998702","","","0","","",""
"223","C00530","SS17 fronte bivio Via Collevernesco","","42.33488099999887","13.437629999998713","","","0","","",""
"224","C00540","Via Collevernesco - lato S.Elia","","42.33750099999887","13.4343199999987","","","0","","",""
"225","C00545","CASE S.ELIA - lato Sud Via Collevernesco","","42.33804099999884","13.430839999998685","","","0","","",""
"226","C00550","VIA COLLEVERNESCO - lato Bazzano - dir. CASE S.Elia","","42.33808099999886","13.433879999998696","","","0","","",""
"227","C00555","CASE S.Elia - lato Nord -Via Collevernesco  incrocio Via Ita","","42.33820099999886","13.430399999998683","","","0","","",""
"228","C00560","Via Collevernesco S.Elia Alto - lato Sud","","42.33728099999881","13.426779999998669","","","0","","",""
"229","C00570","Via Collevernesco S.Elia Alto -lato Nord","","42.33742099999883","13.426269999998663","","","0","","",""
"230","C00580","Via Collevernesco - lato Le Rose","","42.337760999998814","13.422459999998646","","","0","","",""
"231","C00590","Via Collevernesco - lato incrocio Strada Vicinale Manieri","","42.33793099999881","13.422979999998649","","","0","","",""
"232","C00600","Via Collevernesco - fronte chiesa S.Elia","","42.336950999998805","13.420159999998635","","","0","","",""
"233","C00610","Via Collevernesco - lato chiesa S.Elia","","42.33697099999878","13.419899999998634","","","0","","",""
"234","C00620","Via Codalunga c.da pizzutilli","","42.33046799999875","13.408853999998584","","","0","","",""
"235","C00625","Via Codalunga c.da pizzutilli dir. 5bis","","42.33046599999875","13.408948999998586","","","0","","",""
"236","C00630","Via Mausonia incr. Via Marsicana/ SS5bis","","42.31891899999883","13.427498999998669","","","0","","",""
"237","C00640","Via Natalino Mariani lato CASE S.Elia 2","","42.33681099999882","13.424909999998658","","","0","","",""
"238","C00650","Via Natalino Mariani front CASE S.Elia 2","","42.33701099999881","13.425249999998659","","","0","","",""
"239","C00660","CASE S.ELIA 2 Via Natalino Mariani lato","","42.33677099999882","13.423759999998653","","","0","","",""
"240","C00670","Via Natalino Mariani front CASE S.Elia 2","","42.33675099999882","13.423649999998656","","","0","","",""
"241","D00010","VIALE XXV APRILE fronte Via Carabba","","42.35451099999865","13.386849999998484","","","0","","",""
"242","D00020","VIALE XXV APRILE lato Via Carabba","","42.35446099999864","13.386479999998484","","","0","","",""
"243","D00030","VIALE XXV APRILE fronte Corte Appello","","42.35218099999863","13.384959999998474","","","0","","",""
"244","D00040","ACI Via Campo di Pile Dompe","","42.351340999998435","13.346889999998279","","","0","","",""
"245","D00045","Via Gian Domenico Cassini Leonardo","","42.35400944197269","13.334472725679523","","","0","","",""
"246","D00050","ICRA Via Campo di Pile","","42.35309999999838","13.340479999998243","","","0","","",""
"247","D00055","THALES Via Gian Domenico Cassini","","42.35305601405013","13.333228138574228","","","0","","",""
"248","D00060","Via Saragat lato Roll bar","","42.35243099999838","13.339929999998242","","","0","","",""
"249","D00065","Via Saragat fronte Roll bar","","42.3528109999984","13.339439999998234","","","0","","",""
"250","D00070","Via Saragat lato BPER","","42.35143099999841","13.342949999998256","","","0","","",""
"251","D00075","Via Saragat fronte BPER","","42.35114799999843","13.344463999998265","","","0","","",""
"252","D00080","VIA SARAGAT fronte IN'S","","42.350530999998426","13.347329999998282","","","0","","",""
"253","D00090","VIA SARAGAT lato IN'S","","42.35039999999842","13.347159999998281","","","0","","",""
"254","D00100","L'AQUILONE","","42.349658999998425","13.347645999998283","","","0","","",""
"255","D00110","Via Saragat lato centro c.le L'Aquilone","","42.349450999998446","13.351159999998298","","","0","","",""
"256","D00120","Via Saragat front centro c.le L'Aquilone","","42.34963099999843","13.350739999998298","","","0","","",""
"257","D00130","GLOBO","","42.34925999999847","13.35485999999832","","","0","","",""
"258","D00140","CONFINDUSTRIA Via Campo di Pile","","42.35204999999844","13.348949999998288","","","0","","",""
"259","D00150","Via Campo di Pile lato Optimes","","42.35252999999844","13.34920999999829","","","0","","",""
"260","D00170","Via Rocco Carabba lato Poste","","42.354450999998626","13.384209999998468","","","0","","",""
"261","D00190","VIA DI VINCENZO lato Villa Giulia","","42.3559009999986","13.381709999998458","","","0","","",""
"262","D00200","VIA DI VINCENZO fronte Villa Giulia","","42.356510999998605","13.381609999998458","","","0","","",""
"263","D00210","Via Di Vincenzo fronte Hotel Azzurro","","42.357850999998604","13.382799999998463","","","0","","",""
"264","D00220","Via Di Vincenzo lato Hotel Azzurro","","42.35795099999862","13.382909999998464","","","0","","",""
"265","D00230","PIAZZALE STAZIONE F.S.","","42.35146099999863","13.385019999998475","","","0","","",""
"266","D00240","Via Pile fronte Corte Appello","","42.35213099999863","13.384129999998471","","","0","","",""
"267","D00250","Via Pile Eusanio Stella Corte Appello P","","42.35283099999861","13.382929999998465","","","0","","",""
"268","D00260","VIA PILE COAN dopo rotonda","","42.3531509999986","13.380709999998453","","","0","","",""
"269","D00350","VIA MULINO PILE ROTATORIA incr. Variante","","42.35606099999854","13.368419999998391","","","0","","",""
"270","D00360","VIA MULINO PILE lato Spaziani","","42.35834375654415","13.36852137903685","","","0","","",""
"271","D00370","Via Mulino di Pile lato Eurospin","","42.35813758326666","13.368639396948264","","","0","","",""
"272","D00380","SS17 Ovest lato ingresso A24","","42.35959436584587","13.370951471580796","","","0","","",""
"273","D00390","SS17 Ovest fronte ingresso A24","","42.359554714445025","13.371520053566021","","","0","","",""
"274","D00400","SS17 HOTEL MYSUITE lato Sant'Antonio","","42.36034309688592","13.378095535387663","","","0","","",""
"275","D00420","Via Salaria Antica Est lato Anas","","42.35850099999858","13.375149999998422","","","0","","",""
"276","D00430","Via Salaria Antica Est fronte Anas","","42.35847099999858","13.374879999998422","","","0","","",""
"277","D00450","Via dei Medici dir. SS17","","42.35947348112053","13.367480647564346","","","0","","",""
"278","D00465","VIA FICARA I Scuola","","42.36468299999851","13.363223999998365","","","0","","",""
"279","D00470","Via dei Medici lato Via Ficara","","42.36443899999851","13.364775999998374","","","0","","",""
"280","D00475","Via Ficara (Piazza D'Arti)","","42.365765999998494","13.361085999998354","","","0","","",""
"281","D00490","SS17 Ovest lato Via del Mulino di Pile","","42.35924357334308","13.369240142590886","","","0","","",""
"282","D00500","SS17 Ovest lato Via dei Medici","","42.35932280308045","13.36952988530742","","","0","","",""
"283","D00510","ITALTEL AQ/2A","","42.357860999998515","13.364629999998373","","","0","","",""
"284","D00525","CENTI COLELLA piazzale","","42.3593429999985","13.359487999998343","","","0","","",""
"285","D00540","Via Falcone fronte REISS ROMOLI - SP33","","42.36025097063817","13.35190000000489","","","0","","",""
"286","D00550","Via Falcone lato REISS ROMOLI - SP33","","42.36036099064784","13.351710000264335","","","0","","",""
"287","D00560","VIA FALCONE fermata lato Est SP33","","42.36243099999844","13.3508999999983","","","0","","",""
"288","D00570","VIA FALCONE fermata lato Ovest SP33","","42.36256099999844","13.350729999998299","","","0","","",""
"289","D00580","VIA FALCONE lato Via delle Svolte SP33","","42.36458099999842","13.347349999998283","","","0","","",""
"290","D00590","VIA FALCONE fronte Via delle Svolte SP33","","42.364830999998425","13.34707999999828","","","0","","",""
"291","D00600","Via Delle Svolte La Selva f. Via Lucoli","","42.36402099999843","13.346609999998275","","","0","","",""
"292","D00610","VIA DELLE SVOLTE La Selva l. Via Lucoli","","42.36376099999841","13.346359999998278","","","0","","",""
"293","D00620","Via delle Svolte La Selva inc. Via Beffi","","42.36211099999842","13.347209999998283","","","0","","",""
"294","D00630","VIA BORSELLINOlato Via sotto la Chiesa","","42.36631099999841","13.345769999998272","","","0","","",""
"295","D00640","VIA BORSELLINO front Via sotto la Chiesa","","42.36645099999841","13.345949999998274","","","0","","",""
"296","D00650","Via Vetoio lato via Morgagni","","42.36746099999843","13.347299999998281","","","0","","",""
"297","D00660","Via Vetoio fronte via Morgagni","","42.36770099999842","13.347869999998284","","","0","","",""
"298","D00670","UNIVERSITA' lato Ospedale","","42.36760099999845","13.352009999998305","","","0","","",""
"299","D00680","UNIVERSITA' lato Università","","42.36780099999845","13.352459999998308","","","0","","",""
"300","D00700","Via Borsellino fronte centro sportivo","","42.36953099999842","13.346379999998275","","","0","","",""
"301","D00710","Via Borsellino lato centro sportivo","","42.369780999998426","13.346449999998276","","","0","","",""
"302","D00720","VIA BORSELLINO fronte Vigili del Fuoco","","42.37192099999842","13.347679999998283","","","0","","",""
"303","D00730","VIA BORSELLINO lato Vigili del Fuoco","","42.37215099999844","13.348249999998286","","","0","","",""
"304","D00740","S.S.80 fronte Agora lato Via D'Ascanio","","42.37058099999848","13.355549999998326","","","0","","",""
"305","D00750","S.S.80 lato Agora fronte Via D'Ascanio","","42.37038099999849","13.355759999998325","","","0","","",""
"306","D00760","SS80 lato Via Manzoni","","42.3684509999985","13.359369999998348","","","0","","",""
"307","D00770","S.S.80 lato Via Vetoio","","42.36856099999847","13.359009999998342","","","0","","",""
"308","D00780","SS80 lato Via Uruguay fronte Via Medici","","42.36665099999851","13.362789999998363","","","0","","",""
"309","D00790","SS80 lato Via Medici fronte Via Uruguay","","42.365790999998524","13.36387999999837","","","0","","",""
"310","D00800","SS80 lato casa cantoniera Via Pitinum","","42.36431718032645","13.36735728152265","","","0","","",""
"311","D00810","SS80 fronte casa cantoniera Via Pitinum","","42.364080999998535","13.367779999998387","","","0","","",""
"312","D00820","SS80 CAMPOMIZZI","","42.361764565538806","13.374757448519606","","","0","","",""
"313","D00840","SS80 FRONTE HOTEL MYSUITE  lato Caserma","","42.360852436120716","13.377310980286175","","","0","","",""
"314","D00860","CORRADO IV Mercato Piazza d'Armi","","42.3597209999986","13.38054999999845","","","0","","",""
"315","D00870","MC DONALD Viale Corrado IV","","42.35916099999862","13.38142999999846","","","0","","",""
"316","D00880","Viale Fiamme Gialle varco1 fronte GDF","","42.376950999998364","13.335619999998219","","","0","","",""
"317","D00890","Viale Fiamme Gialle varco2 fronte GDF","","42.378559999998345","13.333309999998209","","","0","","",""
"318","D00900","VIALE FIAMME GIALLE varco3 fronte GDF","","42.38018999999833","13.331099999998193","","","0","","",""
"319","D00910","1° ROTATORIA GDF","","42.38689999999827","13.321139999998135","","","0","","",""
"320","D00915","Via Cagnano lato Via San Vittorino","","42.386859999998265","13.321609999998142","","","0","","",""
"321","D00920","CAPOLINEA GDF varco3 Viale Fiamme Gialle","","42.380359999998326","13.329979999998187","","","0","","",""
"322","D00930","Viale Fiamme Gialle varco2 lato GDF","","42.37837999999833","13.333199999998206","","","0","","",""
"323","D00940","Viale Fiamme Gialle varco1 lato GDF","","42.37658099999835","13.335849999998223","","","0","","",""
"324","D00950","Viale Corrado IV Rotonda Piazza d'Armi","","42.356900999998636","13.38632999999848","","","0","","",""
"325","D00960","Via Eusanio Stella Mercato Contadino","","42.35335099999861","13.381679999998457","","","0","","",""
"326","D00990","N.I. PILE Via Carabba lato via Contini","","42.35465099999859","13.379229999998444","","","0","","",""
"327","D01000","N.I. PILE Via Carabba fronte via Contini","","42.3543109999986","13.379009999998443","","","0","","",""
"328","D01010","POSTE centi colella SS17 Ovest","","42.36020099999848","13.356729999998333","","","0","","",""
"329","D01020","V. Salaria Antica Est - fronte scuola","","42.357665922696995","13.37385356871819","","","0","","",""
"330","D01030","CASE S. ANTONIO 1. fermata","","42.35796899999856","13.373055999998414","","","0","","",""
"331","D01040","CASE S. ANTONIO 2. fermata","","42.35762099999858","13.371249999998405","","","0","","",""
"332","D01050","V. Salaria Antica Est - lato scuola","","42.35733099999856","13.373729999998417","","","0","","",""
"333","D01070","2° ROTATORIA GDF - Via Cagnano lato Via Fontecchio","","42.3938899999982","13.311249999998077","","","0","","",""
"334","D01080","VIALE XXV APRILE lato Corte Appello","","42.35225099999863","13.384789999998473","","","0","","",""
"335","D01090","Variante Pile Via Farroni  lato Carabba","","42.35410099999858","13.37584999999843","","","0","","",""
"336","D01100","Variante Pile Via Farroni fronte Carabba","","42.353741999998576","13.375188999998425","","","0","","",""
"337","D01110","MAZZINI Variante Pile Via Farroni","","42.35357399999856","13.3698709999984","","","0","","",""
"338","D01120","MAZZINI fronte Variante Pile Via Farroni","","42.35341099999856","13.369878999998397","","","0","","",""
"339","D01140","Variante Pile Via Farroni lato Pertini","","42.354536999998544","13.36866799999839","","","0","","",""
"340","D01150","Viale Fiamme Gialle fronte Via Poppleto","","42.3746309999984","13.342439999998259","","","0","","",""
"341","D01160","Viale Fiamme Gialle lato Via Poppleto","","42.37460099999839","13.34153999999825","","","0","","",""
"342","D99999","DEPOSITO","","42.356462798048945","13.351913047452273","","","0","","",""
"343","E00010","VIA FERMI fronte Centro Commerciale","","42.374241377435865","13.350703390249329","","","0","","",""
"344","E00020","Via Fermi lato Centro Commerciale","","42.37438099999845","13.350879999998302","","","0","","",""
"345","E00030","Via A.Arischia lato via Dante Alighieri","","42.37621099999845","13.352989999998313","","","0","","",""
"346","E00040","Via A.Arischia fronte via Dante Alighier","","42.37590099999845","13.353049999998312","","","0","","",""
"347","E00050","Via A.Arischia lato Via del Colle","","42.374870999998464","13.355709999998325","","","0","","",""
"348","E00060","Via A.Arischia lato Via Pier Delle Vigne","","42.37466099999848","13.355859999998327","","","0","","",""
"349","E00070","Via A.Arischia lato Via di Sfrizzoli","","42.3734109999985","13.359049999998344","","","0","","",""
"350","E00080","Via A.Arischia lato Via Caduti traforo","","42.373060999998486","13.359409999998347","","","0","","",""
"351","E00090","VIA ANTICA ARISCHIA lato scuole medie","","42.371480999998525","13.363479999998365","","","0","","",""
"352","E00100","VIA ANTICA ARISCHIA fronte scuole medie","","42.37123099999853","13.363799999998367","","","0","","",""
"353","E00110","Via A.Arischia fronte chiesa","","42.370620999998536","13.366779999998382","","","0","","",""
"354","E00120","VIA ANTICA ARISCHIA lato chiesa","","42.37040099999853","13.366949999998385","","","0","","",""
"355","E00130","Via A.Arischia lato Via Argentina","","42.36970099999855","13.369669999998395","","","0","","",""
"356","E00140","Via A.Arischia lato v.Madonna di Pettino","","42.36940099999856","13.3700099999984","","","0","","",""
"357","E00150","Via A.Arischia incr. Via Aufidena","","42.368554190517564","13.372346203140664","","","0","","",""
"358","E00160","VIA ANTICA ARISCHIA sotto A24","","42.36816099999859","13.376679999998434","","","0","","",""
"359","E00170","Via Peltuinum sotto A24","","42.36778099999859","13.376799999998433","","","0","","",""
"360","E00180","Via A.Arischia fronte Via Cutilia","","42.3671709999986","13.380209999998451","","","0","","",""
"361","E00190","Via A.Arischia lato Via Cutilia","","42.3668309999986","13.38054999999845","","","0","","",""
"362","E00200","Via A.Arischia lato Via Sila Persichelli","","42.36579099999862","13.382759999998461","","","0","","",""
"363","E00210","Via A.Arischia fron Via Sila Persichelli","","42.36535099999862","13.383199999998467","","","0","","",""
"364","E00220","VIA CONFALONIERI lato Inapli","","42.36460099999863","13.385859999998477","","","0","","",""
"365","E00230","VIA CONFALONIERI fronte Inapli","","42.36450099999863","13.386099999998478","","","0","","",""
"366","E00240","VIA MARCONI lato chiesa S.Sisto","","42.363760999998654","13.390799999998505","","","0","","",""
"367","E00250","VIA MARCONI fronte chiesa S.Sisto","","42.36380099999866","13.3902599999985","","","0","","",""
"368","E00260","VIA MARCONIi fronte Via Campomizzi","","42.36358099999866","13.392159999998508","","","0","","",""
"369","E00270","VIA MARCONI lato Via Campomizzi","","42.364100999998655","13.392529999998512","","","0","","",""
"370","E00280","VIA MARCONI c.da Cianfarano dir. S.Sisto","","42.36278099999868","13.39605999999853","","","0","","",""
"371","E00290","VIA MARCONI c.da Cianfarano dir. S.Fran.","","42.36268099999868","13.395979999998527","","","0","","",""
"372","E00300","VIA MARCONI c.da Sansone dir.S.Sisto","","42.36265099999871","13.400039999998548","","","0","","",""
"373","E00310","VIA MARCONI c.da Sansone dir.S.Francesco","","42.36226099999869","13.400459999998548","","","0","","",""
"374","E00320","Via Aldo Moro incr. Via Tosti lato Sud DISMESSA","","42.35824099999872","13.404029999998565","","","0","","",""
"375","E00330","Via Aldo Moro incr. Via Tosti lato Nord","","42.35845099999873","13.404439999998566","","","0","","",""
"376","E00340","Via Aldo Moro fronte Via Fedri lato Sud","","42.35911667512575","13.402864377771715","","","0","","",""
"377","E00350","Via Aldo Moro lato Via Fedri lato Nord","","42.359295063519994","13.402869694763336","","","0","","",""
"378","E00360","VIA ALDO MORO lato scuole","","42.360036350580174","13.400868819370046","","","0","","",""
"379","E00370","VIA ALDO MORO fronte scuole","","42.360025434450485","13.399873615416087","","","0","","",""
"380","E00380","Via Monte Velino incrocio Via Aldo Moro DISMESSA","","42.359700384276465","13.397344361244235","","","0","","",""
"381","E00390","VALLE PRETARA CHIESA via Monte Sirente","","42.35888584647022","13.396689928390664","","","0","","",""
"382","E00400","Valle Pretara ex-poste Via Pizzo di Sevo","","42.35901261643481","13.397743976228762","","","0","","",""
"383","E00410","Via Aldo Moro icrocio Via Monte Velino DISMESSA","","42.36002941001509","13.397296047394237","","","0","","",""
"384","E00420","Via Aldo Moro Cianfarano lato edicola","","42.36071416136457","13.395155662330957","","","0","","",""
"385","E00430","Via Aldo Moro Cianfarano fronte edicola","","42.36060320774615","13.394994676423117","","","0","","",""
"386","E00440","Via Aldo Moro C.Pretara Via Monte Matese","","42.35921677683491","13.393111769188222","","","0","","",""
"387","E00450","Via Aldo Moro C.Pretara Via Monte Cagno","","42.35915931525175","13.392674635659928","","","0","","",""
"388","E00460","Via Aldo Moro in.Via San Sisto lato Sud","","42.35878871254189","13.390638883323154","","","0","","",""
"389","E00470","Via Aldo Moro in.Via San Sisto lato Nord","","42.35886795857316","13.390279378262461","","","0","","",""
"390","E00480","VIA CADUTI VIA FANI lato Nord","","42.35926235505429","13.388762628259917","","","0","","",""
"391","E00490","VIA CADUTI VIA FANI lato Sud","","42.35927229799455","13.388592253264","","","0","","",""
"392","E00500","Via San Sisto fronte incr. Via Nocelle","","42.36114099999865","13.389629999998496","","","0","","",""
"393","E00510","Via San Sisto lato incr. Via Nocelle","","42.361180999998645","13.3898499999985","","","0","","",""
"394","E00520","Via San Sisto lato c.sportivo Verdeaq","","42.36323099999865","13.389639999998497","","","0","","",""
"395","E00530","Via San Sisto fronte c.sportivo Verdeaq","","42.362800999998655","13.389779999998497","","","0","","",""
"396","E00540","SAN SISTO PIAZZA fronte chiesa","","42.36482099999866","13.389489999998494","","","0","","",""
"397","E00560","VIA PICCININI lato Via San Giuliano","","42.36520099999864","13.387359999998484","","","0","","",""
"398","E00580","VIA PICCININIi lato Via Santucci","","42.36413099999861","13.384429999998472","","","0","","",""
"399","E00590","VIA PICCINII fronte Via Santucci","","42.364090999998616","13.38410999999847","","","0","","",""
"400","E00600","VIA PICCININI chiesa","","42.362950723857175","13.383042754514051","","","0","","",""
"401","E00630","Via Piccinini mercato piazza d'armi","","42.361300999998605","13.380569999998453","","","0","","",""
"402","E00640","VIA BETAO CESIDIO Santanza","","42.358360999998645","13.386429999998482","","","0","","",""
"403","E00680","VIA BEATO CESIDIO Piazza Italia","","42.36114921594775","13.386929360527684","","","0","","",""
"404","E00700","Via Pellegrini fron Via Andreassi","","42.363550999998644","13.386979999998486","","","0","","",""
"405","E00720","Via Paolucci S.Barbara piazza Ayala","","42.362528630152354","13.385349541671275","","","0","","",""
"406","E00740","VIA AMITERNUM incr. Piccinini lato bar","","42.36394367768036","13.382664632468902","","","0","","",""
"407","E00750","VIA AMITERNUM incr. Piccinini fronte bar","","42.364048683992046","13.38253054323812","","","0","","",""
"408","E00760","VIA AMITERNUM fronte Via Milonia/edicola","","42.365344820175736","13.37879689230378","","","0","","",""
"409","E00770","VIA AMITERNUM lato Via Milonia/edicola","","42.36545576482893","13.37856087408684","","","0","","",""
"410","E00790","VIA DA VINCI lato Regione Abruzzo","","42.36620099999857","13.375149999998424","","","0","","",""
"411","E00800","VIA DA VINCI fronte Regione Abruzzo","","42.36627099999858","13.37462999999842","","","0","","",""
"412","E00810","VIA DA VINCI fronte cinema lat scuole","","42.36611275993887","13.372056458371464","","","0","","",""
"413","E00820","VIA DA VINCI lato cinema front scuole","","42.36608099999855","13.371399999998406","","","0","","",""
"414","E00830","Via Da Vinci A24 fronte Via Carducci","","42.365732231527645","13.369481545045055","","","0","","",""
"415","E00840","Via Da Vinci A24 lato Via Carducci","","42.365500999998545","13.368809999998394","","","0","","",""
"416","E00850","V. COMUNITA' EUROPEA lato Via Australia","","42.36703099999854","13.365829999998379","","","0","","",""
"417","E00860","V. COMUNITA' EUROPEA front Via Australia","","42.36753099999852","13.36454999999837","","","0","","",""
"418","E00870","V. COMUNITA' EUROPEA lat Via Stati Uniti","","42.3692309999985","13.36197999999836","","","0","","",""
"419","E00880","V.COMUNITA' EUROPEA fro Via Stati Uniti","","42.36887099999852","13.36236999999836","","","0","","",""
"420","E00890","VIA MANZONI lato Via Madonna d. Grazie","","42.36978099999849","13.358809999998341","","","0","","",""
"421","E00900","VIA MANZONI fronte Via Madonna d. Grazie","","42.369700999998486","13.35854999999834","","","0","","",""
"422","E00910","Via Madonna di Pettino lato Via Pascoli","","42.366600999998546","13.367509999998385","","","0","","",""
"423","E00920","Via Madonna di Pettino front Via Pascoli","","42.36663099999854","13.36760999999839","","","0","","",""
"424","E00930","VIA MADONNA PETTINO fronte scuole","","42.36826099999854","13.369479999998397","","","0","","",""
"425","E00940","VA MADONNA Pettino lato scuole","","42.368150999998555","13.369429999998397","","","0","","",""
"426","E00950","Via Peltuinum retro cinema","","42.367150999998564","13.373309999998416","","","0","","",""
"427","E00960","INAPLI VIA PICCININI lato Via San Raniero","","42.36528099999864","13.386149999998482","","","0","","",""
"428","E00970","Ctr. Romani Via Carducci lato scuole","","42.36442023814904","13.371037220189512","","","0","","",""
"429","E00980","Ctr. Romani Via Carducci fronte scuole","","42.364210999998555","13.371629999998408","","","0","","",""
"430","E00990","VALLE PRETARA Via Asmara incrocio piazza","","42.35846561713212","13.398524564416723","","","0","","",""
"431","E01000","Via del Castelvecchio entrata DISMESSA","","42.36979864376444","13.371860699197452","","","0","","",""
"432","E01010","VIA CASTELVECCHIO capolinea","","42.37058840074028","13.373538410411314","","","0","","",""
"433","E01020","Via del Castelvecchio uscita","","42.36975113543151","13.37163542535609","","","0","","",""
"434","F00010","SS17 BAZZANO lato Sud","","42.336780999998936","13.45329999999878","","","0","","",""
"435","F00020","SS17 BAZZANO lato Nord","","42.33702562103094","13.454083790982608","","","0","","",""
"436","F00060","SS17 bis lato via dell'Industria Bazzano","","42.34377432476855","13.46059620701691","","","0","","",""
"437","F00080","Via Fioretta Paganica fronte pizzeria","","42.35311099999899","13.468109999998836","","","0","","",""
"438","F00090","Via Fioretta Paganica lato pizzeria","","42.352980999999","13.468129999998839","","","0","","",""
"439","F00100","Via Fioretta Paganica fronte via Onna","","42.355160999999015","13.469809999998844","","","0","","",""
"440","F00110","Via Fioretta Paganica lato via Onna","","42.35586099999902","13.47070999999885","","","0","","",""
"441","F00120","PAGANICA PIAZZA fronte monumento SP103","","42.358660999999","13.47105999999885","","","0","","",""
"442","F00130","PAGANICA PIAZZA lato monumento SP103","","42.35867099999901","13.471159999998848","","","0","","",""
"443","F00140","Via del Rio Paganica lato via Rossi","","42.35735099999901","13.472129999998856","","","0","","",""
"444","F00150","Via Evangelista Paganica incrocio Via Onna - lato bar","","42.35398114324841","13.471829258695834","","","0","","",""
"445","F00160","VIA EVANGELISTA Paganica incrocio Via Onna - fronte bar","","42.35365607947814","13.472440825012637","","","0","","",""
"446","F00170","Via Evangelista Paganica lato Via Emigrante","","42.353735371295","13.473545872240686","","","0","","",""
"447","F00180","Via Evangelista Paganica fronte Via Emigrante","","42.354441046280186","13.474768968776546","","","0","","",""
"448","F00190","Via dello Sport Paganica lato via S.Bartolomeo","","42.3535104117814","13.47748075410653","","","0","","",""
"449","F00200","Via dello Sport Paganica fronte via S.Bartolomeo","","42.35328447121728","13.477732806920987","","","0","","",""
"450","F00210","Via S.Bartolomeo Paganica fronte S.Chiara","","42.353637280562","13.47798764612925","","","0","","",""
"451","F00220","Via S.Bartolomeo Paganica lato S.Chiara","","42.35413178845857","13.478116435944228","","","0","","",""
"452","F00290","SP103 c.da S.Pietro dir. Paganica","","42.35618099999908","13.489329999998919","","","0","","",""
"453","F00300","SP103 c.da S.Pietro dir. Pescomaggiore","","42.35655099999909","13.48965999999892","","","0","","",""
"454","F00310","SP103 Pescomaggiore dir. Paganica","","42.35711099999915","13.50889999999899","","","0","","",""
"455","F00320","SP103 Pescomaggiore dir. Filetto","","42.35721099999915","13.508979999998989","","","0","","",""
"456","F00340","SP103 Pescomaggiore fronte via d. Cinque","","42.35780099999916","13.510989999998994","","","0","","",""
"457","F00350","SP103 Pescomaggiore lato via d. Cinque","","42.357610999999146","13.510859999998996","","","0","","",""
"458","F00360","SP103 Filetto lato via Canna Vinole","","42.37491099999919","13.520479999999031","","","0","","",""
"459","F00370","SP103 Filetto fronte via Canna Vinole","","42.374550999999194","13.52045999999903","","","0","","",""
"460","F00380","Piazza Filetto Area Morelli","","42.3762609999992","13.520059999999031","","","0","","",""
"461","F00390","SP103 Filetto fronte via dell' Aia","","42.37625099999918","13.518529999999023","","","0","","",""
"462","F00400","SP103 Filetto lato via dell' Aia","","42.37603099999917","13.518399999999023","","","0","","",""
"463","F00410","SP103 di Filetto abitato dir. Filetto","","42.38582118475977","13.494998224808533","","","0","","",""
"464","F00420","SP103 di Filetto abitato dir. SS17 bis","","42.38596582836321","13.494601294598706","","","0","","",""
"465","F00430","SP103 di Fil. incr.SS17 bis dir. SS17bis","","42.38755099999911","13.493109999998934","","","0","","",""
"466","F00440","SP103 di Fil. incr.SS17 bis dir. Filetto","","42.38743099999908","13.493169999998933","","","0","","",""
"467","F00460","CAMARDA SS17 bis lato Paese","","42.3894109999991","13.493949999998938","","","0","","",""
"468","F00470","CAMARDA SS17 bis fronte Paese","","42.38950099999909","13.49412999999894","","","0","","",""
"469","F00480","SS17 bis Camarda lato farmacia","","42.392450999999106","13.496479999998947","","","0","","",""
"470","F00490","SS17 bis Camarda fronte farmacia","","42.3927809999991","13.49677999999895","","","0","","",""
"471","F00500","SS17 bis Assergi lato Via del Convento","","42.41360099999913","13.506359999998987","","","0","","",""
"472","F00510","SS17 bis Assergi fronte Via del Convento","","42.41371099999913","13.506779999998981","","","0","","",""
"473","F00515","SS17 bis Assergi Via Pretara","","42.414340999999155","13.508869999998993","","","0","","",""
"474","F00520","SS17 bis Assergi lato Via delle Rosce","","42.41648099999914","13.507319999998987","","","0","","",""
"475","F00530","SS17 bis Assergi lato Via delle Cesole","","42.41586099999915","13.507069999998984","","","0","","",""
"476","F00540","SS17 bis Assergi Via Dei Monti lat Ovest","","42.41807099999914","13.508029999998989","","","0","","",""
"477","F00550","SS17 bis Assergi Via Dei Monti lato Est","","42.41792099999915","13.508149999998988","","","0","","",""
"478","F00560","SS17 bis Assergi fronte svincolo A24","","42.420980999999145","13.508409999998992","","","0","","",""
"479","F00570","SS17 bis Assergi lato svincolo A24","","42.42088099999915","13.50860999999899","","","0","","",""
"480","F00580","INFN Laboratori del Gran Sasso fro. lab.","","42.42046099999917","13.514659999999012","","","0","","",""
"481","F00590","Fonte Cerreto Funivia CTGS partenze bus","","42.425790999999215","13.528329999999057","","","0","","",""
"482","F00595","Fonte Cerreto Funivia CTGS arrivi bus","","42.425590999999216","13.527969999999057","","","0","","",""
"483","F00600","SS17bis Camarda fronte chiesa Valleverde","","42.38713099999909","13.492109999998933","","","0","","",""
"484","F00610","SS17 bis lato chiesa Valleverde Camarda","","42.38676099999908","13.491599999998929","","","0","","",""
"485","F00620","SS17 bis Via Oberdan fronte via Adamello","","42.36116099999902","13.472099999998852","","","0","","",""
"486","F00630","SS17 bis Via Oberdan lato via Adamello","","42.36095099999901","13.471579999998852","","","0","","",""
"487","F00640","SS17 bis Paganica fronte via del cinema","","42.361800999999005","13.467399999998836","","","0","","",""
"488","F00650","SS17 bis Paganica lato via del cinema","","42.36168099999898","13.467849999998839","","","0","","",""
"489","F00660","SS17 bis Paganica fronte via fontanelle","","42.36331099999899","13.464859999998826","","","0","","",""
"490","F00670","SS17 bis Paganica lato via fontanelle","","42.36355099999899","13.464329999998824","","","0","","",""
"491","F00680","SS17 bis Tempera fronte via del Mulino","","42.364930999998975","13.458479999998799","","","0","","",""
"492","F00690","SS17 bis Tempera lato via del Mulino","","42.36506099999895","13.458649999998803","","","0","","",""
"493","F00710","SS17 bis Tempera fronte Via del Salice","","42.36370099999893","13.453309999998778","","","0","","",""
"494","F00720","SS17 bis Tempera lato Via del Salice","","42.36365099999893","13.452959999998779","","","0","","",""
"495","F00730","SS17 bis zona miravalle - dir. Tempera","","42.36750099999889","13.440059999998727","","","0","","",""
"496","F00740","SS17 bis zona miravalle - dir. L'Aquila","","42.36778099999889","13.439819999998722","","","0","","",""
"497","F00750","SS17 bis lato civico 40 - miravalle","","42.36566099999886","13.434579999998702","","","0","","",""
"498","F00760","SS17 bis fronte civico 40 - miravalle","","42.365630999998864","13.4342799999987","","","0","","",""
"499","F00770","Via F.P.Tosti la cona lato ovest","","42.367750999998705","13.402179999998557","","","0","","",""
"500","F00780","Via F.P.Tosti la cona lato est","","42.3680609999987","13.402149999998558","","","0","","",""
"501","F00790","Via F.P.Tosti fronte via Sant' Onofrio","","42.37257099999873","13.405009999998569","","","0","","",""
"502","F00800","Via F.P.Tosti lato via Sant' Onofrio","","42.37251099999873","13.40502999999857","","","0","","",""
"503","F00810","Via F.P.Tosti loc. campitelli dir. L' Aq","","42.38328099999876","13.414929999998616","","","0","","",""
"504","F00820","s.p .70 di loc. loc. campitelli","","42.383530999998776","13.41537999999862","","","0","","",""
"505","F00830","Via F.P.Tosti loc. rotonda dir. L'Aquila","","42.38621099999878","13.416279999998622","","","0","","",""
"506","F00840","Via F.P.Tosti loc. rotonda dir. Aragno","","42.38626099999876","13.416569999998625","","","0","","",""
"507","F00850","Via F.P.Tosti la selva dir. L' Aquila","","42.39023899999878","13.418012999998632","","","0","","",""
"508","F00860","Via F.P.Tosti la selva dir. Aragno","","42.39006099999879","13.417059999998624","","","0","","",""
"509","F00870","Via Tosti Collebrincioni lato v. Corello","","42.39674099999876","13.413659999998611","","","0","","",""
"510","F00880","Via Tosti Collebrincioni fronte Corello","","42.39671099999877","13.413799999998613","","","0","","",""
"511","F00890","Via Tosti Collebrincioni fronte v.scuola","","42.39683099999878","13.415929999998621","","","0","","",""
"512","F00900","Via Tosti Collebrincioni lato v.scuola","","42.397010999998784","13.41570999999862","","","0","","",""
"513","F00910","COLLEBRINCIONI PIAZZAi f.chiesa S. Silvestro","","42.398620999998776","13.41559999999862","","","0","","",""
"514","F00920","COLLEBRINCIONI PIAZZA l.chiesa San Silvestro","","42.39881099999878","13.41575999999862","","","0","","",""
"515","F00930","SP70 di Coll. lato via della Cava","","42.3959509999989","13.447109999998757","","","0","","",""
"516","F00940","SP70 di Coll. fronte via della Cava","","42.39593099999891","13.447279999998758","","","0","","",""
"517","F00950","SP70 di Coll. lato via Quartaro","","42.395830999998935","13.452649999998778","","","0","","",""
"518","F00960","SP70 di Coll. fronte via Quartaro","","42.395750999998924","13.452849999998781","","","0","","",""
"519","F00970","Via dell'Aquila Aragno fermata lato nord","","42.395730999998946","13.45502999999879","","","0","","",""
"520","F00980","Via dell'Aquila Aragno fermata lato sud","","42.39563099999896","13.45560999999879","","","0","","",""
"521","F00990","ARAGNO CAPOLINEA","","42.39570099999896","13.458099999998801","","","0","","",""
"522","F01000","SP70 di Collebrincioni. dir L'Aquila","","42.39885099999882","13.425559999998667","","","0","","",""
"523","F01010","SP70 di Collebrincioni. dir Aragno","","42.39858099999883","13.42697999999867","","","0","","",""
"524","F01030","SP103 di Filetto abitato dir. Filetto","","42.38593099999909","13.497059999998948","","","0","","",""
"525","F01040","SP103 di Filetto abitato dir. SS17 bis","","42.385910999999105","13.497259999998949","","","0","","",""
"526","F01080","ASSERGI SS17 bis  Via Portella fr. Franco","","42.41505099999913","13.507229999998987","","","0","","",""
"527","F01085","ASSERGI SS17 bis Via Portella lat Franco","","42.41509099999914","13.507049999998987","","","0","","",""
"528","F01090","CASE ASSERGI","","42.41901099999919","13.521429999999038","","","0","","",""
"529","F01100","INFN Laboratori del Gran Sasso lato lab.","","42.420530999999166","13.514989999999013","","","0","","",""
"530","F01110","CASE PAGANICA 1 - entrata","","42.36261099999897","13.462179999998817","","","0","","",""
"531","F01120","CASE PAGANICA 1","","42.36214513517288","13.461720053688271","","","0","","",""
"532","F01130","SS17 bis Tempera fronte via Biordi","","42.36401099999898","13.461359999998814","","","0","","",""
"533","F01140","SS17 bis Tempera lato via Biordi","","42.36403099999898","13.462099999998813","","","0","","",""
"534","F01155","CASE PAGANICA 2 Via Casalegno 4. MAP","","42.34571099999903","13.472611999998856","","","0","","",""
"535","F01170","CASE PAGANICA 2 Via Casalegno 3. ferm","","42.34535099999902","13.469659999998841","","","0","","",""
"536","F01180","CASE PAGANICA 2 Via Casalegno 2. ferm","","42.346400999999005","13.468559999998837","","","0","","",""
"537","F01190","CASE PAGANICA 2 Via Casalegno 1. ferm","","42.34848099999899","13.46814999999884","","","0","","",""
"538","F01200","CASE BAZZANO via De Andre 1. f.","","42.3357609999989","13.443229999998735","","","0","","",""
"539","F01210","CASE BAZZANO via De Andre 2. f.","","42.337320999998894","13.442819999998735","","","0","","",""
"540","F01220","CASE BAZZANO via De Andre 3. f.","","42.335860999998886","13.443029999998735","","","0","","",""
"541","F01230","SS17 bis fron via dell'Industria Bazzano","","42.34346099999897","13.459979999998804","","","0","","",""
"542","F01240","Via Industria N.I Bazzano fronte Archivio Stato","","42.34308437685174","13.462017731888508","","","0","","",""
"543","F01250","Via Industria N.I Bazzano lato Archvio Stato","","42.3428861697005","13.462441504985385","","","0","","",""
"544","F01260","N.I. BAZZANO Via Industria  lato ASM","","42.34221950414126","13.464970887355086","","","0","","",""
"545","F01270","N.I. BAZZANO Via Industria  fronte ASM","","42.34225323136672","13.464725454139579","","","0","","",""
"546","F01280","Via Industria N.I Bazzano lato Aquilav","","42.34154990243388","13.467446509871133","","","0","","",""
"547","F01290","Via Industria N.I Bazzano fronte Aquilav","","42.341284999999","13.468127999998837","","","0","","",""
"548","F01300","Via Industria N.I Bazzano fronte Comet - Iveco","","42.33883003494513","13.46998697185633","","","0","","",""
"549","F01310","Via Industria N.I Bazzano lato Comet - Iveco","","42.3386315451936","13.46973723234381","","","0","","",""
"550","F01320","Via Industria lato distretto sanitario N.I. Bazzano","","42.335893551181336","13.471212407831501","","","0","","",""
"551","F01330","Via Industria fronte distretto sanitario N.I. Bazzano","","42.33611555788231","13.469849834320781","","","0","","",""
"552","F01340","VIA VINCIALI N.I Bazzano fronte Brico","","42.33308299999904","13.477267999998872","","","0","","",""
"553","F01345","Via Vinciali N.I Bazzano fronte Auto4","","42.33433099999902","13.472679999998855","","","0","","",""
"554","F01350","VIA VINCIALIi N.I Bazzano lato Brico","","42.33302899999904","13.477054999998874","","","0","","",""
"555","F01355","Via Vinciali N.I Bazzano lato Auto4","","42.33419099999902","13.472869999998856","","","0","","",""
"556","F01360","VIA ONNA fronte via Vinciali N.I Bazzano","","42.332924999999044","13.478077999998874","","","0","","",""
"557","F01370","VIA ONNA lato distributore gpl","","42.337705999999024","13.475918999998868","","","0","","",""
"558","F01380","Via Onna Bazzano fronte distributore gpl","","42.338055999999035","13.475924999998867","","","0","","",""
"559","F01385","Via Onna Paganica fronte Teges","","42.342410999999025","13.474469999998863","","","0","","",""
"560","F01390","VIA ONNA Paganica fronte scuole","","42.34769099999902","13.472439999998857","","","0","","",""
"561","F01400","VIA ONNA Paganica lato scuole","","42.34723599999903","13.472885999998857","","","0","","",""
"562","F01410","Via Onna lato Carabinieri Paganica","","42.35127099999902","13.472186999998854","","","0","","",""
"563","F01420","Via Onna campo sportivo rugby Paganica","","42.34932499999901","13.472144999998855","","","0","","",""
"564","F01430","Via Onna fronte via Sant'Emidio Paganica","","42.35514899999902","13.471146999998851","","","0","","",""
"565","F01440","Via Onna fronte Carabinieri Paganica","","42.351290999999016","13.472419999998856","","","0","","",""
"566","F01450","VIA PESCOMAGGIORE lato Via dei Maceri Corvenisci","","42.35451241283757","13.479768633816905","","","0","","",""
"567","F01460","Via Onna lato via Sant'Emidio Paganica","","42.35517099999901","13.47138999999885","","","0","","",""
"568","F01480","Via Pescomaggiore lato Via Rotellini Corvenisci","","42.35467093744245","13.4795326576326","","","0","","",""
"569","F01490","CASE CAMARDA entrata","","42.390044999999105","13.496211999998946","","","0","","",""
"570","F01500","CASE CAMARDA Capolinea","","42.3902939999991","13.498065999998953","","","0","","",""
"571","F01510","CASE CAMARDA uscita","","42.39021199999909","13.496250999998948","","","0","","",""
"572","F01550","CASE TEMPERA","","42.367811999998935","13.452116999998776","","","0","","",""
"573","G00010","SS17 fronte Stazione Fs Paganica lato CC","","42.335600999998974","13.463229999998818","","","0","","",""
"574","G00020","SS17 lato Stazione Fs Paganica","","42.33506099999899","13.464559999998825","","","0","","",""
"575","G00030","SS17 lato bivio Via R. Volpe Monticchio","","42.33390099999899","13.468579999998838","","","0","","",""
"576","G00040","SS17 Nucleo Ind.le Bazzano lato Auto4","","42.332890999999016","13.472946999998856","","","0","","",""
"577","G00045","SS17 Nucleo Ind.le Bazzano fronte Auto4","","42.33270099999902","13.473249999998858","","","0","","",""
"578","G00050","SS17 lato bivio Onna paese","","42.33131099999905","13.478229999998877","","","0","","",""
"579","G00060","SS17 fronte bivio Onna paese","","42.33101786451625","13.479655938013947","","","0","","",""
"580","G00090","MAP ONNA paese - Casa Onna","","42.32966099999905","13.478609999998877","","","0","","",""
"581","G00100","SS17 Onna lato ex-mercato bestiame","","42.33029099999906","13.482099999998892","","","0","","",""
"582","G00110","SS17 Onna fronte ex-mercato bestiame","","42.32971099999906","13.483699999998898","","","0","","",""
"583","G00120","SS17 San Gregorio lato Via Mario Morelli","","42.32864430231505","13.48776696316254","","","0","","",""
"584","G00130","SS17 San Gregorio fronte Via M. Morelli","","42.328080999999074","13.489149999998919","","","0","","",""
"585","G00140","ATER SAN GREGORIO - capolinea","","42.32893083232124","13.49116805595507","","","0","","",""
"586","G00160","SS17 San Gregorio lato Paese","","42.32629938184077","13.49540057975244","","","0","","",""
"587","G00170","SS17 San Gregorio fronte Paese","","42.32625574734934","13.495314722275074","","","0","","",""
"588","G00190","SC Picenze cimitero dir. SS17","","42.324313348748454","13.523204271323689","","","0","","",""
"589","G00200","SC Picenze cimitero dir. Petogna","","42.32434513583051","13.523343821852036","","","0","","",""
"590","G00210","SC uscita Petogna Picenze dir. SS17","","42.329651631598395","13.522313886288302","","","0","","",""
"591","G00220","SC entrata Petogna Picenze dir. Villa","","42.3298809999992","13.522299999999037","","","0","","",""
"592","G00230","Petogna Picenze lato chiesa","","42.331181403461514","13.523987514630146","","","0","","",""
"593","G00240","Petogna Picenze fronte chiesa","","42.33105054498459","13.524057209483804","","","0","","",""
"594","G00250","SC Villa Picenze lato Via Fonte Vecchia","","42.33254099999921","13.526059999999045","","","0","","",""
"595","G00260","SC Villa Picenze front Via Fonte Vecchia","","42.332430999999204","13.526129999999046","","","0","","",""
"596","G00270","SC Villa di Mezzo Picenze dir. SS17","","42.33221148975958","13.528954925610577","","","0","","",""
"597","G00280","SC Villa di Mezzo Picenze dir. San Marti","","42.33214803077736","13.528901299664525","","","0","","",""
"598","G00290","SC Villa di Mezzo Picenze fronte scuole","","42.33285789598157","13.530939805928925","","","0","","",""
"599","G00300","SC Villa di Mezzo Picenze lato scuole","","42.332798443776845","13.531079317935756","","","0","","",""
"600","G00310","SC Villa di Mezzo Picenze capolinea","","42.33276099999923","13.533709999999072","","","0","","",""
"601","G00320","Via della Stazione Fossa lato Cerro","","42.299192711710475","13.495464880527154","","","0","","",""
"602","G00330","Via della Stazione Fossa fronte Cerro","","42.29891893726574","13.494799691104763","","","0","","",""
"603","G00340","Via della Stazione fronte Fossa Osteria","","42.29832768079633","13.488732550704265","","","0","","",""
"604","G00350","Via della Stazione lato Fossa Osteria","","42.29841106501457","13.48856096271954","","","0","","",""
"605","G00360","Via M. delle Grotte front cimitero Fossa","","42.3010039652919","13.484591207600774","","","0","","",""
"606","G00365","Via M. delle Grotte incr. SP Fossa","","42.30235292446185","13.484752234929632","","","0","","",""
"607","G00370","Via M. delle Grotte lato cimitero Fossa","","42.30086901718669","13.484526871069589","","","0","","",""
"608","G00380","Via M.d. Grotte lato v della Plaia Fossa","","42.29880099999908","13.485529999998903","","","0","","",""
"609","G00390","Via M.d. Grotte fron v della Plaia Fossa","","42.29850099999908","13.4856799999989","","","0","","",""
"610","G00400","Fossa Paese Via Madonna delle Grotte cap","","42.29619497288388","13.487037457000193","","","0","","",""
"611","G00410","Via Monticchio Fossa lato Fossa Paese DISUSO","","42.30301099999907","13.484709999998898","","","0","","",""
"612","G00420","Via Monticchio Fossa fronte Fossa Paese DISMESSA","","42.303250999999065","13.4846499999989","","","0","","",""
"613","G00430","piazza Monticchio Via Di Valle dir.","","42.319592452348324","13.464657072033088","","","0","","",""
"614","G00490","Via S.Nicola Monticchio direzione SP36","","42.31976108066124","13.462798340542733","","","0","","",""
"615","G00500","Via S.Nicola Monticchio direzione Ater","","42.31959443749686","13.462715145341317","","","0","","",""
"616","G00510","ATER MONTICCHIO","","42.31885099999898","13.460309999998806","","","0","","",""
"617","G00530","Via Di Valle dir. Cavalletto Monticchio","","42.319719413765185","13.464729466040149","","","0","","",""
"618","G00540","Via Di Valle fron via Platone Monticchio","","42.31803099999899","13.46342999999882","","","0","","",""
"619","G00550","Via Di Valle lato via Platone Monticchio","","42.31773099999897","13.463129999998817","","","0","","",""
"620","G00560","Via Puccini Cavalletto Ocre la. cimitero","","42.312810493630245","13.46041916297552","","","0","","",""
"621","G00570","Via Puccini Cavalletto Ocre fr. cimitero","","42.31263590577609","13.460247477673873","","","0","","",""
"622","G00580","s.p. 37 di cavalletto bar/Via Giacomo Pu","","42.30961099999897","13.4592799999988","","","0","","",""
"623","G00590","s.p. 37 di cavalletto bar/Via Giacomo Pu","","42.30946099999897","13.459159999998802","","","0","","",""
"624","G00600","Piazza Cavalletto Ocre fron slargo","","42.30660099999895","13.457799999998796","","","0","","",""
"625","G00610","Piazza Cavalletto Ocre lato slargo","","42.306460999998976","13.457659999998794","","","0","","",""
"626","G00620","Via Verdi lato Fontamara Cavalletto Ocre","","42.308850999998945","13.455649999998789","","","0","","",""
"627","G00630","Via Verdi fron Fontamara Cavalletto Ocre","","42.308830999998946","13.454799999998782","","","0","","",""
"628","G00640","Via Marsicana fron Via Fura Civita Bagno","","42.30790099999893","13.44677999999875","","","0","","",""
"629","G00650","Via Marsicana lato Via Fura Civita Bagno","","42.308130999998916","13.446729999998752","","","0","","",""
"630","G00660","Via Marsicana fronte chiesa Civita Bagno","","42.3091609999989","13.443449999998736","","","0","","",""
"631","G00670","Via Marsicana lato chiesa Civita Bagno","","42.3093409999989","13.443369999998735","","","0","","",""
"632","G00680","Civita Bagno Via Marsicana lat San Paolo","","42.311320999998884","13.438979999998718","","","0","","",""
"633","G00690","Civita Bagno Via Marsicana fr. San Paolo","","42.31133099999889","13.439249999998717","","","0","","",""
"634","G00700","Via Marsicana front Pizzone Civita Bagno","","42.31436099999886","13.433529999998695","","","0","","",""
"635","G00710","Via Marsicana lato Pizzone Civita Bagno","","42.31477099999886","13.43299999999869","","","0","","",""
"636","G00720","Via Marsicana inizio dir. Civita Bagno","","42.31627099999884","13.430769999998684","","","0","","",""
"637","G00730","Via Marsicana inizio dir. Mausonia","","42.31635099999885","13.430809999998683","","","0","","",""
"638","G00740","SR615 Sopra Rotonda lato Totani Irish","","42.33115099999871","13.403009999998558","","","0","","",""
"639","G00750","SR615 Sopra Rotonda fronte Totani Irish","","42.33070099999871","13.40337999999856","","","0","","",""
"640","G00760","SR615 bv. Cimitero - dir. L'Aquila","","42.32929099999873","13.405989999998573","","","0","","",""
"641","G00770","SR615  Pianola lato Via Dell' Allodola","","42.328830999998736","13.406209999998573","","","0","","",""
"642","G00780","SR615 Pianola lato Via San Giuseppe","","42.32610899999875","13.406505999998574","","","0","","",""
"643","G00790","SR615 Pianola fronte Via San Giuseppe","","42.325880999998745","13.406259999998575","","","0","","",""
"644","G00800","SR615 Pianola lato Via Giada","","42.324880999998726","13.405849999998571","","","0","","",""
"645","G00810","SR615 Pianola fronte Via Giada","","42.324880999998726","13.405649999998568","","","0","","",""
"646","G00820","PIANOLA PIAZZA SR615 dir. Roio","","42.323560999998726","13.403329999998558","","","0","","",""
"647","G00830","PIANOLA PIAZZA SR615 dir. L' Aquila","","42.323480999998736","13.403829999998564","","","0","","",""
"648","G00840","SR615 Pianola Via San Lorenzo dir. L' Aq","","42.324310999998715","13.400799999998547","","","0","","",""
"649","G00850","SR615 Pianola Via San Lorenzo dir. Roio","","42.324680999998705","13.400249999998545","","","0","","",""
"650","G00860","Via San Giuseppe Pianola lato Augelli","","42.32461099999875","13.40722999999858","","","0","","",""
"651","G00870","Via San Giuseppe Pianola fronte Augelli","","42.32420099999875","13.40750999999858","","","0","","",""
"652","G00880","Via San Giuseppe Pianola lato Paradosso","","42.321950999998755","13.40989999999859","","","0","","",""
"653","G00890","Via San Giuseppe Pianola front Paradosso","","42.321610999998754","13.409979999998587","","","0","","",""
"654","G00920","Via San Giuseppe Bagno direzione Pianola","","42.310660999998795","13.419809999998634","","","0","","",""
"655","G00930","Via San Giuseppe Bagno direzione Bagno","","42.310460999998796","13.419809999998634","","","0","","",""
"656","G00940","Via della Fonte Bagno fronte via Ripa","","42.30873099999881","13.421529999998643","","","0","","",""
"657","G00950","Via della Fonte Bagno lato via Ripa","","42.308730999998815","13.42120999999864","","","0","","",""
"658","G00960","SP35 Bagno Vigna la Valle lato B.Piccolo","","42.307880999998815","13.424559999998655","","","0","","",""
"659","G00970","SP35 Bagno Vigna la Valle lato B.Grande","","42.307160999998814","13.42385999999865","","","0","","",""
"660","G00980","SP35 Bagno lato v. della Fonte B.Piccolo","","42.30674099999883","13.426709999998664","","","0","","",""
"661","G00990","SP35 Bagno fron v. della Fonte B.Piccolo","","42.30660099999883","13.427359999998668","","","0","","",""
"662","G01000","cimitero Bagno fronte cimitero","","42.30616099999885","13.431079999998682","","","0","","",""
"663","G01010","cimitero Bagno lato cimitero","","42.30593099999885","13.431129999998682","","","0","","",""
"664","G01020","San Benedetto di Bagno dir. cimitero","","42.304140999998886","13.439129999998716","","","0","","",""
"665","G01030","San Benedetto di Bagno dir. Sant' Angelo","","42.304000999998884","13.439199999998717","","","0","","",""
"666","G01040","S.Angelo di Bagno front via del Cancello","","42.30335099999887","13.437729999998712","","","0","","",""
"667","G01050","S.Angelo di Bagno lato via del Cancello","","42.303220999998885","13.437779999998712","","","0","","",""
"668","G01060","S.Angelo di Bagno fronte via della Fonte","","42.30315099999887","13.4346999999987","","","0","","",""
"669","G01070","S.Angelo di Bagno lato via della Fonte","","42.30315099999886","13.434429999998699","","","0","","",""
"670","G01080","Vallesindola Bagno piazza dir. S.Angelo","","42.302770999998856","13.431659999998686","","","0","","",""
"671","G01090","Vallesindola Bagno piazza dir. Ripa","","42.302810999998854","13.431469999998683","","","0","","",""
"672","G01100","Vallesindola Bagno bivio dir. Ripa","","42.303580999998836","13.428359999998671","","","0","","",""
"673","G01110","Vallesindola Bagno bivio dir. S.Angelo","","42.30373099999883","13.42804999999867","","","0","","",""
"674","G01120","Ripa di Bagno dir. Vallesindola","","42.30475099999882","13.424459999998655","","","0","","",""
"675","G01130","Ripa di Bagno dir. Bagno grande","","42.30483099999882","13.424449999998652","","","0","","",""
"676","G01140","str. Com bagno grande entrata/fine Ripa","","42.305220999998795","13.42139999999864","","","0","","",""
"677","G01150","Via Ripa Bagno Grande lato v. degli Olmi","","42.3053009999988","13.421259999998641","","","0","","",""
"678","G01160","Bagno Grande piazza","","42.307210999998816","13.422179999998644","","","0","","",""
"679","G01190","SP35 Bagno Cominio fronte c.da Lilletta","","42.31086099999886","13.431129999998682","","","0","","",""
"680","G01200","SP35 Bagno Cominio lato c.da Lilletta","","42.311530999998844","13.431539999998684","","","0","","",""
"681","G01210","SP35 Bagno Cominio lato via La Costa","","42.313000999998856","13.432079999998685","","","0","","",""
"682","G01220","SP35 Bagno Cominio fronte via La Costa","","42.31328099999884","13.432109999998687","","","0","","",""
"683","G01230","Map Bagno lato Map","","42.30963099999885","13.431859999998688","","","0","","",""
"684","G01240","Map Bagno fronte Map","","42.30993099999885","13.431879999998687","","","0","","",""
"685","G01250","Via Rodolfo Volpe- Area Sport - Parco de","","42.32667222690253","13.463366865261557","","","0","","",""
"686","G01270","Via Rodolfo Volpe - Peppone lato ecare","","42.32915189275008","13.465053993731773","","","0","","",""
"687","G01290","Via Rodolfo Volpe fronte via O.Giuliani","","42.331250999998986","13.466179999998829","","","0","","",""
"688","G01350","Stazione Fossa Necropoli lato Map","","42.30598110500848","13.506757020012008","","","0","","",""
"689","G01360","MAP Fossa - Necropoli Vestina","","42.30667540060549","13.506987631119776","","","0","","",""
"690","G01380","Via Marsicana lato farmacia Civita Bagno","","42.31283099999889","13.436509999998707","","","0","","",""
"691","G01390","Via Marsicana fronte farmacia Civita Bagno","","42.31281099999888","13.436339999998705","","","0","","",""
"692","G01400","MAP Pianola Cimitero","","42.32655099999871","13.402049999998553","","","0","","",""
"693","G01410","Via Allodola Pianola front via S.Palanza","","42.32858099999872","13.403979999998564","","","0","","",""
"694","G01420","Via Allodola Pianola lato via S.Palanza","","42.32864099999872","13.403799999998563","","","0","","",""
"695","G01430","Via della Croce / La rutula San Gregorio","","42.327042083789046","13.501188698108514","","","0","","",""
"696","G01440","Map San Gregorio 1. senso orario","","42.32950883848813","13.50018027139326","","","0","","",""
"697","G01450","Map San Gregorio 2. senso orario","","42.33000099999912","13.50079999999896","","","0","","",""
"698","G01460","Map San Gregorio 3. senso orario","","42.32923127852594","13.501950508156416","","","0","","",""
"699","G01470","Map San Gregorio 4. senso orario","","42.32820801598337","13.502390360462575","","","0","","",""
"700","G01480","Stazione Fossa Necropoli fronte Map","","42.30623899033194","13.507652867485172","","","0","","",""
"701","G01490","SC Petogna Picenze lato bowling","","42.328080999999194","13.523399999999038","","","0","","",""
"702","G01500","SC Petogna Picenze fronte bowling","","42.328080999999194","13.52306999999904","","","0","","",""
"703","G01510","Via la Costa Cominio Bagno 1. fermata","","42.313260999998846","13.431259999998682","","","0","","",""
"704","G01520","Via la Costa Cominio Bagno 2. fermata","","42.311950999998835","13.428899999998675","","","0","","",""
"705","G01530","Ctr. Lilletta Cominio BagnoVia Aia Chiavella","","42.311050999998834","13.429649999998677","","","0","","",""
"706","G01540","Via Dell'Allodola 1 USCITA MAP","","42.32907099999873","13.40518999999857","","","0","","",""
"707","H00040","Via Roio Genzano lato Via Colle Mancino","","42.35112999999831","13.326499999998164","","","0","","",""
"708","H00050","Via Roio Genzano front Via Colle Mancino","","42.35105999999829","13.326229999998166","","","0","","",""
"709","H00060","Via Roio Genzano paese lato Via Meruci","","42.351459999998276","13.32250999999814","","","0","","",""
"710","H00070","Via Roio Genzano paese fronte Via Meruci","","42.351589999998275","13.322449999998142","","","0","","",""
"711","H00080","SS584 lato abitazioni Genzano bv. Roio","","42.35260999999829","13.322829999998143","","","0","","",""
"712","H00100","SS584 bv. Collefracido Sassa lato paese","","42.32248099999829","13.32287999999814","","","0","","",""
"713","H00105","SS584 bv. Collefracido Sassa front paese","","42.32291099999829","13.32264999999814","","","0","","",""
"714","H00110","Via fonte d. Piaggia la.cv26 Casavecchia","","42.31098099999833","13.330329999998185","","","0","","",""
"715","H00115","Via fonte d. Piaggia fr.cv26 Casavecchia","","42.31093099999833","13.330299999998182","","","0","","",""
"716","H00120","via dell'Aquila Casavecchia lat Farmacia","","42.30847099999834","13.330369999998183","","","0","","",""
"717","H00130","via delle Ville dir. Casavecchia Lucoli","","42.306180999998325","13.329509999998177","","","0","","",""
"718","H00135","via delle Ville da Casavecchia Lucoli","","42.30605099999833","13.329369999998178","","","0","","",""
"719","H00140","via Casavecchia bv.via ville Prata Lucol","","42.30285099999832","13.32813999999817","","","0","","",""
"720","H00150","via Casavecchia bv.via ville Prata Lucol","","42.30252099999831","13.32809999999817","","","0","","",""
"721","H00160","Via del querceto Peschiolo fr.e pizzeria","","42.29802099999829","13.327259999998164","","","0","","",""
"722","H00170","Prata Lucoli fronte civ3 Via Casavecchia","","42.29556099999833","13.330579999998182","","","0","","",""
"723","H00175","Prata Lucoli lato civ3 Via Casavecchia","","42.29557099999833","13.330509999998183","","","0","","",""
"724","H00180","Peschiolo Paese di Lucoli via del querceto","","42.297230999998305","13.326849999998162","","","0","","",""
"725","H00190","SANTA CROCE  di Lucoli lato via le croci","","42.303250999998255","13.317829999998112","","","0","","",""
"726","H00200","SANTA CROCE  di Lucoli front via le croci","","42.30344099999826","13.318109999998113","","","0","","",""
"727","H00210","SANTA CROCE  di Lucoli front via d. vigne","","42.30475099999827","13.319329999998121","","","0","","",""
"728","H00220","SANTA CROCE di Lucoli lato via d. vigne","","42.30487099999826","13.319529999998121","","","0","","",""
"729","H00230","Via Gatti Francolisco Lucoli lat.fontana","","42.308290999998256","13.320409999998127","","","0","","",""
"730","H00240","Via Gatti Francolisco Lucoli fro.fontana","","42.30828099999827","13.320569999998126","","","0","","",""
"731","H00250","SANATA MENNA Lucoli lat.largo del Mancino","","42.31041099999827","13.320899999998128","","","0","","",""
"732","H00260","SANATA MENNA Lucoli fro.largo del Mancino","","42.31042099999828","13.321039999998131","","","0","","",""
"733","H00270","via Santa Menna Lucoli Mulino civico 13","","42.31153099999827","13.320469999998128","","","0","","",""
"734","H00280","via Santa Menna Lucoli Mulino civico 10","","42.311590999998266","13.320519999998128","","","0","","",""
"735","H00290","Sant'Andrea Lucoli Via Tartaglione civ.3","","42.31416099999825","13.317859999998113","","","0","","",""
"736","H00295","via Santa Menna Lucoli lato campo sport.","","42.31299099999826","13.318849999998116","","","0","","",""
"737","H00300","Sant'Andrea Lucoli civ.8 Via Tartaglione","","42.31439099999826","13.317899999998113","","","0","","",""
"738","H00305","via Santa Menna Lucoli fron campo sport.","","42.31300099999825","13.319049999998118","","","0","","",""
"739","H00310","Via Tartaglione Sant'Andrea Lucoli cv.41","","42.31597999999826","13.316529999998103","","","0","","",""
"740","H00320","Via Tartaglione Sant'Andrea Lucoli cv.18","","42.316079999998244","13.316769999998105","","","0","","",""
"741","H00330","s.p.5 s.andrea uscita","","42.31759999999822","13.314929999998094","","","0","","",""
"742","H00340","Via Tartaglione Sant'Andrea Lucoli cv.46","","42.31775999999824","13.314949999998094","","","0","","",""
"743","H00350","Silvaplana Collemare fronte civ. 46","","42.32195999999818","13.306349999998044","","","0","","",""
"744","H00360","Silvaplana Collemare lato civ. 46","","42.32204999999818","13.306349999998044","","","0","","",""
"745","H00370","Silvaplana Collemare lato San Martino","","42.32284999999817","13.305049999998035","","","0","","",""
"746","H00380","Silvaplana Collemare fronte San Martino","","42.32311999999818","13.305189999998037","","","0","","",""
"747","H00390","Silvaplana piazza Collemare lato fontana","","42.32472999999816","13.30402999999803","","","0","","",""
"748","H00400","Silvaplana piazza Collemare fron fontana","","42.32472999999817","13.304199999998032","","","0","","",""
"749","H00410","SP Silvaplana lato sdrucciolo d. Croce","","42.325979999998204","13.306829999998046","","","0","","",""
"750","H00420","SP Silvaplana fronte sdrucciolo d. Croce","","42.32679999999818","13.306509999998044","","","0","","",""
"751","H00430","SP Silvaplana dir. Poggio S.M lato n. 18","","42.32882999999817","13.305369999998039","","","0","","",""
"752","H00440","SP Silvaplana dir. Collemare front n. 18","","42.32894999999817","13.304999999998035","","","0","","",""
"753","H00450","SP Silvaplana dir. Collemare San Martino","","42.32975999999815","13.302299999998022","","","0","","",""
"754","H00460","SP Silvaplana dir. Poggio Santa Maria","","42.32992999999814","13.302089999998019","","","0","","",""
"755","H00470","Silvaplana via Colle fron Nocella Po.S.M","","42.33060999999813","13.298229999997996","","","0","","",""
"756","H00480","Silvaplana via Colle lato Nocella Po.S.M","","42.33072999999813","13.298519999997998","","","0","","",""
"757","H00490","Silvaplana via Colle lato MAP Poggio S.M","","42.332609999998155","13.30204999999802","","","0","","",""
"758","H00500","Silvaplana via Colle fron MAP Poggio S.M","","42.33302999999816","13.302259999998022","","","0","","",""
"759","H00510","SP Silvaplana via Colle lato Valle Ricci","","42.33585999999815","13.302379999998022","","","0","","",""
"760","H00520","SP Silvaplana via Colle fron Valle Ricci","","42.33615999999815","13.302329999998022","","","0","","",""
"761","H00530","Via Poggio Santa Maria fronte civico 31","","42.344599999998096","13.29352999999797","","","0","","",""
"762","H00540","Via Poggio Santa Maria lato civico 31","","42.3446499999981","13.293259999997966","","","0","","",""
"763","H00550","Via Poggio Santa Maria lato via Caionari","","42.34569999999809","13.292409999997963","","","0","","",""
"764","H00560","Via Poggio Santa Maria fron via Caionari","","42.345809999998096","13.292559999997962","","","0","","",""
"765","H00570","Via Brecciasecca lato chiesa Collesassa","","42.34722999999808","13.290689999997952","","","0","","",""
"766","H00580","Via Brecciasecca front chiesa Collesassa","","42.34735999999807","13.290689999997952","","","0","","",""
"767","H00590","Via Brecciasecca fron esteti. Collesassa","","42.34684999999807","13.288329999997936","","","0","","",""
"768","H00600","Via Brecciasecca lato esteti. Collesassa","","42.34690999999807","13.288249999997934","","","0","","",""
"769","H00610","Via Brecciasecca fron via Del Rio Brecc.","","42.34535999999804","13.285479999997918","","","0","","",""
"770","H00620","Via Brecciasecca lato via Del Rio Brecc.","","42.34534999999804","13.285329999997918","","","0","","",""
"771","H00630","SP1 Amiternina lato casale Colaiuda","","42.33802999999805","13.283909999997908","","","0","","",""
"772","H00640","SP1 Amiternina fronte casale Colaiuda","","42.33758999999803","13.283749999997905","","","0","","",""
"773","H00650","SP1 Amiternina front civ.38 c.da Aliucci","","42.33399999999803","13.283379999997901","","","0","","",""
"774","H00660","SP1 Amiternina lato civ. 38 c.da Aliucci","","42.33409999999803","13.283499999997904","","","0","","",""
"775","H00670","SP1 Amiternina Sassa fronte Total","","42.33177999999802","13.283249999997905","","","0","","",""
"776","H00680","SP1 Amiternina Sassa lato Total","","42.331299999998016","13.283149999997903","","","0","","",""
"777","H00690","SP1 Am. Palombaia Tornimparte lato Farm.","","42.32730999999802","13.2827099999979","","","0","","",""
"778","H00700","SP1 Am. Palombaia Tornimparte fron Farm.","","42.327509999998014","13.282849999997902","","","0","","",""
"779","H00710","Via Piagge Foce Sassa 2. fermata","","42.316429999998135","13.29749999999799","","","0","","",""
"780","H00720","Via Piagge Foce Sassa 7. fermata","","42.31640999999812","13.29767999999799","","","0","","",""
"781","H00730","Via Piagge Foce Sassa 6. f. lato fontana","","42.314449999998125","13.297779999997992","","","0","","",""
"782","H00740","Via Piagge Foce Sassa 3. f. fron fontana","","42.314559999998124","13.297659999997993","","","0","","",""
"783","H00750","Via Piagge Foce Sassa 4. ferm. Capolinea","","42.31085999999814","13.298979999997998","","","0","","",""
"784","H00760","SP1 Amiternina lato via Brecciasecca 1","","42.344029999998014","13.282299999997898","","","0","","",""
"785","H00770","SP1 Amiternina fronte via Brecciasecca 1","","42.34421999999802","13.282129999997897","","","0","","",""
"786","H00780","SP1 Ponte San Giovanni lato ponte","","42.35114999999801","13.280719999997888","","","0","","",""
"787","H00790","SP1 Ponte San Giovanni fronte ponte","","42.352159999998015","13.281859999997897","","","0","","",""
"788","H00800","Via Ponte San Giovanni fronte civico 80","","42.354119999998055","13.285269999997917","","","0","","",""
"789","H00810","Via Ponte San Giovanni n.52 c.da S.Carlo","","42.35325999999805","13.287599999997932","","","0","","",""
"790","H00820","Via Ponte San Giovanni Sassa lato poste","","42.353179999998076","13.291809999997959","","","0","","",""
"791","H00830","Via Ponte San Giovanni Sassa front poste","","42.352949999998074","13.292479999997964","","","0","","",""
"792","H00840","Via Duca Abruzzi fronte via Fonte Sassa","","42.352369999998125","13.298149999997996","","","0","","",""
"793","H00850","Via Duca Abruzzi lato via Fonte Sassa","","42.35219999999813","13.298249999997998","","","0","","",""
"794","H00860","SASSA Carabinieri Via Duca Abruzzi","","42.352369999998146","13.301609999998018","","","0","","",""
"795","H00870","SASSA Carabineri Fronte Via Duca Abruzzi","","42.35232999999815","13.301899999998021","","","0","","",""
"796","H00900","SASSA SCUOLE ROTATORIA fronte Via Duca Abruzzi","","42.3520199999982","13.306729999998048","","","0","","",""
"797","H00910","SASSA SCUOLE ROTATORI Via Duca Abruzzi","","42.35175999999819","13.30725999999805","","","0","","",""
"798","H00920","Via San Rocco Pagliare Sassa","","42.351439999998185","13.309389999998066","","","0","","",""
"799","H00940","PAGLIARE PAESE di Sassa San Rocco","","42.349649999998206","13.310629999998072","","","0","","",""
"800","H00950","Via Madonna Pagliare di Sassa","","42.35194999999821","13.312149999998082","","","0","","",""
"801","H00970","SCUOLA MEDIA SASSA Fronte SP1","","42.351709999998185","13.309099999998066","","","0","","",""
"802","H00980","SCUOLA MEDIA SASSA SP1 lato","","42.35170999999819","13.309459999998067","","","0","","",""
"803","H00990","Via Palombaia Sassa 6. fermata","","42.3528099999982","13.312259999998082","","","0","","",""
"804","H01000","Via Palombaia Sassa 1. fermata","","42.35319999999822","13.312589999998085","","","0","","",""
"805","H01010","Via Palombaia Sassa 5. fermata","","42.355259999998225","13.313359999998088","","","0","","",""
"806","H01020","Via Palombaia Sassa 2. fermata","","42.35539999999822","13.31355999999809","","","0","","",""
"807","H01030","Via Palombaia Sassa 3. fermata","","42.35785999999823","13.314509999998096","","","0","","",""
"808","H01040","Via Palombaia Sassa 4. fermata","","42.35780999999823","13.314359999998095","","","0","","",""
"809","H01050","PALOMBAIA PAESE Capolinea Cerella","","42.35885999999823","13.315099999998099","","","0","","",""
"810","H01060","SP1 fronte Ex Sercom Pagliare Sassa","","42.35284999999824","13.316189999998105","","","0","","",""
"811","H01070","SP1 lato Ex Sercom Pagliare Sassa","","42.35275999999825","13.316559999998107","","","0","","",""
"812","H01080","SS584 distrubutore Genzano bv. Lucoli","","42.3539199999983","13.324029999998151","","","0","","",""
"813","H01090","SS584 ex-edicola Genzano bv. Lucoli","","42.353949999998285","13.324409999998153","","","0","","",""
"814","H01100","SS584 fronte Via della Fontana Genzano","","42.3556499999983","13.32737999999817","","","0","","",""
"815","H01110","SS584 lato Via della Fontana Genzano","","42.35519999999831","13.32688999999817","","","0","","",""
"816","H01120","SS 17 bv. Pontepeschio fermata lato Nord","","42.356210999998396","13.341479999998251","","","0","","",""
"817","H01130","SS 17 bv. Pontepeschio fermata lato Sud","","42.35606833861656","13.341578584996352","","","0","","",""
"818","H01140","SS17 Deposito Ama Spa fronte Ama","","42.35848099999845","13.351309999998302","","","0","","",""
"819","H01150","SS17 Deposito Ama Spa lato Ama","","42.35842694465081","13.351599306250659","","","0","","",""
"820","H01180","SS17 C.da Carducci fermata lato Sud","","42.3607359378188","13.332590517961275","","","0","","",""
"821","H01190","SS17 C.da Carducci fermata lato Nord","","42.36091099999833","13.332249999998199","","","0","","",""
"822","H01210","SS17 Tricaiolo - Sci d'erba - dir.L'Aq.","","42.36267029528552","13.325369990856663","","","0","","",""
"823","H01220","SS17 C.da Cirella fermata lato Nord","","42.36413999999823","13.312889999998086","","","0","","",""
"824","H01230","SS17 C.da Cirella fermata lato Sud","","42.36381385982593","13.312219121530783","","","0","","",""
"825","H01240","SS17 Sassa Scalo fronte bivio Preturo","","42.36150999999814","13.299129999998003","","","0","","",""
"826","H01250","SS17 Sassa Scalo lato bivio Preturo","","42.36161999999815","13.298679999997999","","","0","","",""
"827","H01260","SS17 SASSA SCALO  lato Stazione FS","","42.360729999998085","13.294629999997976","","","0","","",""
"828","H01270","SS17 SASSA SCALO Irti lato Nord","","42.36048999999808","13.29205999999796","","","0","","",""
"829","H01280","SS17 Sassa Scalo Irti lato Sud","","42.36009999999808","13.290959999997954","","","0","","",""
"830","H01290","Sassa Scalo SS17  lato Bowling","","42.35995999999807","13.288899999997943","","","0","","",""
"831","H01300","Via della Stazione Sassa fronte via Pini","","42.35300999999811","13.295929999997984","","","0","","",""
"832","H01310","Via della Stazione Sassa lato via Pini","","42.35332999999811","13.295889999997986","","","0","","",""
"833","H01320","Via della Stazione Sassa lato via scuola","","42.35844999999809","13.293429999997972","","","0","","",""
"834","H01330","Via della Stazione Sassa lato v. T. Raio","","42.35829999999809","13.293459999997971","","","0","","",""
"835","H01340","Via Piagge Foce Sassa 8. fermata","","42.31646999999811","13.295199999997976","","","0","","",""
"836","H01350","Via Piagge Foce Sassa 1. fermata","","42.31667999999811","13.294859999997973","","","0","","",""
"837","H01360","Via Piagge Foce Sassa 5. ferm. Capolinea","","42.311069999998125","13.298839999997996","","","0","","",""
"838","H01370","Via Ponte San Giovanni n.57 c.da S.Carlo","","42.353439999998066","13.28873999999794","","","0","","",""
"839","H01380","SP1 fronte via B Di Mario Pagliare Sassa","","42.35289999999823","13.314249999998093","","","0","","",""
"840","H01390","SP1 lato via Montagnola Pagliare Sassa","","42.35250999999822","13.312429999998082","","","0","","",""
"841","H01400","SP1 lato cimitero Pagliare di Sassa","","42.35297999999826","13.32007999999813","","","0","","",""
"842","H01410","SP1 fronte cimitero Pagliare di Sassa","","42.35282999999827","13.319549999998124","","","0","","",""
"843","H01420","SS584 fiume Raio lato deposito legname","","42.355890999998344","13.3329799999982","","","0","","",""
"844","H01430","SS584 fiume Raio lato carrozzeria","","42.355780999998345","13.332249999998199","","","0","","",""
"845","H01440","CASE SASSA NSI 2.Via Bruno D'Inzillo DISMESSA","","42.365879999998256","13.318329999998118","","","0","","",""
"846","H01450","CASE SASSA NSI 3. DISMESSA","","42.365329999998245","13.316079999998106","","","0","","",""
"847","H01460","BELLICOSO Via Scarlattei 1. fermata","","42.36444999999818","13.306679999998051","","","0","","",""
"848","H01465","BELLICOSO Via Scarlattei 2. fermata","","42.36371999999815","13.302369999998024","","","0","","",""
"849","H01470","SS584 fronte abitazioni Genzano bv. Roio","","42.352649999998285","13.322709999998143","","","0","","",""
"850","H01480","SP Silvaplana via Colle lato Soalco","","42.33871999999815","13.30184999999802","","","0","","",""
"851","H01490","SP Silvaplana via Colle fronte Soalco","","42.34103999999815","13.302369999998023","","","0","","",""
"852","H01500","Via del querceto Peschiolo lato pizzeria","","42.298100999998304","13.327149999998163","","","0","","",""
"853","H01510","SP1 Amiternina fronte via Brecciasecca 2","","42.34174999999804","13.282999999997902","","","0","","",""
"854","H01520","SP1 Amiternina lato via Brecciasecca 2","","42.34228999999803","13.282939999997902","","","0","","",""
"855","H01530","CASE PAGLIARE Sassa Capolinea","","42.35104999999825","13.317019999998108","","","0","","",""
"856","H01535","CASE PAGLIARE Sassa 2. fermata","","42.351169999998234","13.3153499999981","","","0","","",""
"857","H01540","CASE SASSA NSI 1. DISMESSA","","42.36530999999823","13.314249999998092","","","0","","",""
"858","H01545","N. I. SASSA NSI Via Bruno D'Inzillo Palestra DISMESSA","","42.36493999999819","13.310199999998071","","","0","","",""
"859","H01550","CASE SASSA NSI 4.Via Bruno D'Inzillo DISMESSA","","42.365519999998234","13.313779999998092","","","0","","",""
"860","H01560","SS17 SASSA SCALO fronte Stazione Fs","","42.36119999999812","13.296009999997985","","","0","","",""
"861","I00020","Via della Madonnella lato Via Colatoi","","42.36888099999841","13.344079999998263","","","0","","",""
"862","I00030","Via della Madonnella fronte Via Colatoi","","42.3691909999984","13.343909999998264","","","0","","",""
"863","I00040","VIA DELLA MADONELLA dir.rotatoria","","42.371530999998384","13.342069999998253","","","0","","",""
"864","I00070","Via della Madonnella lato piazza Fagnano","","42.37081099999841","13.342139999998254","","","0","","",""
"865","I00080","COPPITO PIAZZA lato bar","","42.366950999998394","13.343329999998257","","","0","","",""
"866","I00090","Via Ciavola Coppito lato murata Gigotti","","42.36813099999837","13.33960999999824","","","0","","",""
"867","I00100","Via Ciavola Coppito front murata Gigotti","","42.36771099999838","13.338229999998232","","","0","","",""
"868","I00110","Via di Preturo Coppito fro Casa Studente","","42.36792999999833","13.331479999998196","","","0","","",""
"869","I00120","Via di Preturo Coppito lat Casa Studente","","42.36800099999834","13.331559999998195","","","0","","",""
"870","I00130","Via di Preturo Coppito lato palestra","","42.36815999999831","13.32755999999817","","","0","","",""
"871","I00140","Via di Preturo Coppito fronte palestra","","42.3681499999983","13.327479999998172","","","0","","",""
"872","I00150","Via di Preturo lato il Cervo Bianco","","42.37100999999822","13.31332999999809","","","0","","",""
"873","I00160","Via di Preturo fronte il Cervo Bianco","","42.37062999999822","13.314009999998095","","","0","","",""
"874","I00170","Via dell'Aringo Preturo fronte Aeroporto","","42.37592999999814","13.301329999998021","","","0","","",""
"875","I00180","Via dell'Aringo Preturo lato Aeroporto","","42.37615999999814","13.300979999998017","","","0","","",""
"876","I00190","Via dell'Aringo Preturo fronte scuole","","42.37720999999812","13.298259999998","","","0","","",""
"877","I00200","Via dell'Aringo Preturo lato scuole","","42.37739999999812","13.298299999998001","","","0","","",""
"878","I00210","SR80 dir. Via Amiternina lato Via Aringo","","42.377979999998104","13.29630999999799","","","0","","",""
"879","I00220","SR80 dir Via Amiternina front Via Aringo","","42.3772299999981","13.295409999997984","","","0","","",""
"880","I00230","SR80 dir Via Amiternina f. Via Sant'Anna","","42.3753599999981","13.294549999997978","","","0","","",""
"881","I00240","SR80 dir Via Amiternina l. Via Sant'Anna","","42.3747099999981","13.293999999997975","","","0","","",""
"882","I00250","SR80 CASE Cese Preturo fro. paese","","42.37192999999808","13.29289999999797","","","0","","",""
"883","I00260","SR80 CASE Cese Preturo lato paese","","42.37204999999809","13.292799999997964","","","0","","",""
"884","I00270","Via San Giovanni lato via Cesanuova","","42.37282999999807","13.290529999997954","","","0","","",""
"885","I00280","CESE PAESE Via San Giovanni fronte via Cesanuova","","42.37294999999807","13.290399999997952","","","0","","",""
"886","I00290","Via San Giovanni Cese bv. via Sant' Anna","","42.37332999999806","13.287669999997938","","","0","","",""
"887","I00300","Via San Giovanni Cese via Strada vecchia","","42.37415999999806","13.28672999999793","","","0","","",""
"888","I00310","Via San Giovanni Cese incr. via Quinzi","","42.374909999998025","13.283999999997912","","","0","","",""
"889","I00320","VIA SANT'ANNA Cese incr. via Quinzi","","42.37444999999802","13.2821599999979","","","0","","",""
"890","I00330","VIA SANT'ANNA Cese circolo sportivo","","42.37264999999802","13.282629999997901","","","0","","",""
"891","I00340","VIA SANT'ANNA Cese inc.via San Giovanni","","42.37267999999805","13.286509999997927","","","0","","",""
"892","I00360","SR80 dir. lato Carcere Costarelle","","42.36535999999807","13.289609999997948","","","0","","",""
"893","I00370","SR80 dir. fronte Carcere Costarelle","","42.36415999999806","13.28890999999794","","","0","","",""
"894","I00380","SR80 dir Via Amiternina f. Via Peschiera","","42.379899999998116","13.297259999997994","","","0","","",""
"895","I00390","SR80 dir Via Amiternina l. Via Peschiera","","42.38045999999812","13.297599999997997","","","0","","",""
"896","I00400","Preturo ATER","","42.38240999999812","13.298929999998006","","","0","","",""
"897","I00410","MAP Preturo fronte Cimitero","","42.38251999999812","13.297649999997997","","","0","","",""
"898","I00420","MAP Preturo lato Cimitero","","42.38302999999811","13.297229999997995","","","0","","",""
"899","I00430","Via Preturo fronte Sdrucciolo degli Orti","","42.385949999998104","13.295199999997982","","","0","","",""
"900","I00440","Via Preturo lato Sdrucciolo degli Orti","","42.38627999999809","13.295079999997983","","","0","","",""
"901","I00450","Via Preturo fronte Via Santa Marinella","","42.3884299999981","13.293579999997974","","","0","","",""
"902","I00460","Via Preturo lato Via Santa Marinella","","42.388249999998095","13.293729999997975","","","0","","",""
"903","I00470","SAN MARCO PRETURO Piazza fronte chiesa","","42.39514999999801","13.28330999999791","","","0","","",""
"904","I00480","SAN MARCO PRETURO Piazza lato chiesa","","42.395279999998024","13.282749999997906","","","0","","",""
"905","I00490","Via Cadore lato via del Serbatoio","","42.39642999999804","13.286579999997933","","","0","","",""
"906","I00500","Via Cadore fronte via del Serbatoio","","42.39645999999805","13.28717999999793","","","0","","",""
"907","I00520","Via Cadore direzione Pozza Preturo","","42.39612999999807","13.289079999997947","","","0","","",""
"908","I00530","POZZA CAPOLINEA Via Cadore","","42.39680999999809","13.292299999997965","","","0","","",""
"909","I00540","Via Canapine San Marco fro. v. Canaletto","","42.393508571285395","13.283345076144837","","","0","","",""
"910","I00550","Via Canapine San Marco lato v. Canaletto","","42.393522422496886","13.282231938157409","","","0","","",""
"911","I00560","Via Canapine San Marco fronte v. Vallone","","42.393221311930894","13.279490763726459","","","0","","",""
"912","I00570","Via Canapine San Marco lato via Vallone","","42.39320547029043","13.278723603619408","","","0","","",""
"913","I00580","Santi Preturo fronte Cimitero","","42.40168419627128","13.250041490533151","","","0","","",""
"914","I00590","Santi Preturo lato Cimitero","","42.40168816003924","13.249445985126643","","","0","","",""
"915","I00620","Via dei Villini Menzano di Preturo","","42.40521849640659","13.230687934699882","","","0","","",""
"916","I00630","Via della Ridola Menzano Preturo piazza","","42.405448291186744","13.228424187353149","","","0","","",""
"917","I00640","Via della Ridola Menzano Preturo uscita","","42.40527393879379","13.226106801749937","","","0","","",""
"918","I00650","Via dell'Aquila centro Casaline Preturo","","42.411231137468235","13.234292819343723","","","0","","",""
"919","I00660","CASALINEA PRETURO Via dell'Aquila fine","","42.40915565787475","13.237168207701787","","","0","","",""
"920","I00670","Arischia ATER Capolinea","","42.422429999998364","13.337499999998235","","","0","","",""
"921","I00680","SP29 Via Pizzoli Arischia lato farmacia","","42.420919999998354","13.336799999998227","","","0","","",""
"922","I00690","SP29 Via Pizzoli Arischia front farmacia","","42.42069999999835","13.336729999998228","","","0","","",""
"923","I00700","arischia Monumento","","42.41919999999837","13.340309999998246","","","0","","",""
"924","I00730","SS80 Arischia fronte Carabinieri","","42.41539999999839","13.340309999998246","","","0","","",""
"925","I00740","Via Dell'Aquila Arischia entrata paese","","42.4173099999984","13.342209999998257","","","0","","",""
"926","I00750","SS80 entrata Arischia lato ovest","","42.413589999998365","13.337759999998232","","","0","","",""
"927","I00760","SS80 Arischia lato Carabinieri","","42.41534999999838","13.340099999998245","","","0","","",""
"928","I00770","SS80 lato convento S.Nicola","","42.412629999998266","13.320859999998138","","","0","","",""
"929","I00780","SS80 fronte convento S.Nicola","","42.41269999999827","13.320609999998137","","","0","","",""
"930","I00790","SS80 bivio Pizzoli - dir. Arischia","","42.40967999999818","13.30777999999806","","","0","","",""
"931","I00800","SS80 bivio Pizzoli - dir. bivio","","42.40985999999818","13.307769999998062","","","0","","",""
"932","I00810","SS80 Cermone fronte distributore","","42.40719999999818","13.306149999998052","","","0","","",""
"933","I00830","SS80 Teatro Amiternum lato Teatro","","42.4028899999982","13.309069999998071","","","0","","",""
"934","I00840","SS80 Teatro Amiternum fronte Teatro DISMESSA","","42.403549999998184","13.308229999998064","","","0","","",""
"935","I00850","SS80 Scuola Edile lato scuola","","42.39896999999821","13.312099999998084","","","0","","",""
"936","I00860","SS80 Scuola Edile fronte scuola","","42.39864999999821","13.312049999998084","","","0","","",""
"937","I00870","Via Pizzoli S.Vittorino b.Ovest dir.SS80","","42.39820999999821","13.31283999999809","","","0","","",""
"938","I00880","Via Pizzoli S.Vittorino b.Ovest dir.paes","","42.39810999999822","13.313029999998092","","","0","","",""
"939","I00890","Via Pizzoli San Vittorino dir. Chiesa","","42.39995999999823","13.313949999998096","","","0","","",""
"940","I00900","Via Pizzoli San Vittorino dir. SS80","","42.40010999999822","13.313959999998097","","","0","","",""
"941","I00910","SAN VITTORINO PIAZZA fronte chiesa","","42.39712507167656","13.314257591567582","","","0","","",""
"942","I00920","SAN VITTORINO PIAZZA lato chiesa","","42.39699999999822","13.314479999998099","","","0","","",""
"943","I00930","Via Pizzoli S.Vittorino bv.Est dir.paese","","42.39455999999826","13.31969999999813","","","0","","",""
"944","I00940","Via Pizzoli S.Vittorino bv. Est dir.SS80","","42.394279999998254","13.319629999998128","","","0","","",""
"945","I00950","SS80 San Vittorino fronte autodemolizion","","42.39475052903037","13.31445869374042","","","0","","",""
"946","I00960","SS80 San Vittorino lato autodemolizione DISMESSA","","42.39469999999823","13.314259999998097","","","0","","",""
"947","I00970","SS80 San Vittorino lato bv. Via Pizzoli","","42.39427999999825","13.31928999999813","","","0","","",""
"948","I00980","SS80 San Vittorino front bv. Via Pizzoli DISMESSA","","42.39402999999826","13.31992999999813","","","0","","",""
"949","I00990","SS80 c.da Acqua Oria - dir. S.Vittorino","","42.39359864941978","13.323444120021431","","","0","","",""
"950","I01000","SS80 c.da Acqua Oria - dir. L'Aquila","","42.39357999999828","13.323129999998152","","","0","","",""
"951","I01010","SS80 c.da Taranta lato via Valle Marina","","42.39009999999833","13.330929999998194","","","0","","",""
"952","I01020","SS80 c.da Taranta fronte via Valle Marina DISMESSA","","42.389849999998326","13.330999999998191","","","0","","",""
"953","I01030","SS80 c.da Isabella fronte Via del Mulino","","42.38744999999835","13.333909999998209","","","0","","",""
"954","I01040","SS80 c.da Isabella lato Via del Mulino","","42.38760999999834","13.333499999998207","","","0","","",""
"955","I01050","SS80 Cansatessa lato Martin Luther King","","42.38463099999837","13.339169999998235","","","0","","",""
"956","I01060","SS80 Cansatessa lato via Einstein - Portichetto","","42.38455096503475","13.339029990759371","","","0","","",""
"957","I01070","SS80 Cansatessa lato via Albert Sabin","","42.38001099999841","13.345229999998272","","","0","","",""
"958","I01080","SS80 Cansatessa fronte via Albert Sabin","","42.380170999998406","13.344879999998268","","","0","","",""
"959","I01090","SS80 lato Via Enrico Fermi","","42.37373099999844","13.349759999998295","","","0","","",""
"960","I01100","SS80 lato Via Paolo Borsellino","","42.37366099999843","13.349679999998296","","","0","","",""
"961","I01110","Via Antica Arischia lato via Adenauer","","42.37826099999845","13.350399999998299","","","0","","",""
"962","I01120","Via Antica Arischia fronte via Tolstoi","","42.37795099999844","13.3506999999983","","","0","","",""
"963","I01130","via A.Arischia fronte via Gazzetelle","","42.37971099999843","13.347129999998279","","","0","","",""
"964","I01140","via A.Arischia lato via delle Gazzetelle","","42.37997099999843","13.347339999998283","","","0","","",""
"965","I01150","via A.Arischia lato via delle Aie","","42.382310999998424","13.346079999998278","","","0","","",""
"966","I01160","via A.Arischia fronte via delle Aie","","42.3824309999984","13.346079999998278","","","0","","",""
"967","I01170","CANSATESSA CAPOLINEA via A.Arischia lato via Curie / Fleming","","42.38522099999841","13.344649999998266","","","0","","",""
"968","I01180","via A.Arischia lato via Picasso fr. Flem","","42.38531099999842","13.344809999998269","","","0","","",""
"969","I01185","VIA BEETHOVEN l'Aquila, Via Ludwig","","42.38515099999837","13.339789999998244","","","0","","",""
"970","I01190","VIA FLEMING lato via delle Aie","","42.3838509999984","13.342309999998253","","","0","","",""
"971","I01195","VIA GANDHIi l'Aquila","","42.38591137002824","13.340049653120994","","","0","","",""
"972","I01200","VIA FLEMING lato via Beethoven","","42.38406099999841","13.342549999998257","","","0","","",""
"973","I01210","COPPITO PIAZZA lato piazza","","42.3671009999984","13.34344999999826","","","0","","",""
"974","I01220","Via di Preturo Coppito lato Coppito 3","","42.368469999998275","13.32197999999814","","","0","","",""
"975","I01230","Via di Preturo Coppito fronte Coppito 3","","42.368319999998256","13.320409999998132","","","0","","",""
"976","I01240","CASE COPPITO 3 lato via Morante","","42.369499999998276","13.320729999998132","","","0","","",""
"977","I01250","CASE COPPITO 3 lato Via Calvino","","42.37024999999825","13.31829999999812","","","0","","",""
"978","I01260","NEW CAMPUS Colle di Preturo","","42.39045999999807","13.292529999997964","","","0","","",""
"979","I01270","Via Dell'Aquila Arischia uscita paese","","42.41725999999839","13.34204999999826","","","0","","",""
"980","I01280","Via Pizzoli Arischia lato Via d Convento","","42.419579999998376","13.338459999998237","","","0","","",""
"981","I01290","Via Dell'Aquila Arischia lat Via Fossato","","42.41831999999838","13.34086999999825","","","0","","",""
"982","I01300","Via dell'Aquila Arischia P.zza San Rocco","","42.41821738659483","13.340747029549435","","","0","","",""
"983","I01310","VIA MONTE OMO SS80 Arischia direzione","","42.41684999999839","13.342709999998261","","","0","","",""
"984","I01320","VIA MONTE OMO Via Macindole Arischia","","42.41913099999841","13.345259999998273","","","0","","",""
"985","I01330","SS80 entrata Arischia lato est","","42.413579999998376","13.338129999998234","","","0","","",""
"986","I01340","CASE ARISCHIA vicino rotonda","","42.41692999999835","13.336309999998225","","","0","","",""
"987","I01350","CASE ARISCHIA lato CASE","","42.41414999999835","13.336169999998223","","","0","","",""
"988","I01360","CASE ARISCHIA fronte CASE","","42.41434999999835","13.336659999998226","","","0","","",""
"989","I01370","SR80 dir. lato Via De Filippo P.CASE","","42.373609999998095","13.293799999997972","","","0","","",""
"990","I01390","Via Pizzoli Arischia lato Via Ripetta","","42.41970999999837","13.338619999998238","","","0","","",""
"991","I01400","SR80 dir. lato Coop","","42.36098999999806","13.287489999997934","","","0","","",""
"992","I01410","SR80 dir. fronte. Coop","","42.360938999998055","13.28726599999793","","","0","","",""
"993","I01420","Via della Madonnella lato Via Mainetta","","42.37213099999839","13.340479999998244","","","0","","",""
"994","I01430","POZZA PRETURO lato Via del Fontanile","","42.39594100606504","13.293591179573085","","","0","","",""
"995","I01440","Pozza Preturo fronte Via del Fontanile","","42.39517248692191","13.293719895077833","","","0","","",""
"996","I01450","Via Cadore direzione San Marco Preturo","","42.39616999999806","13.289089999997946","","","0","","",""
"997","I01460","Santi di Preturo fronte chiesa","","42.40156436954286","13.241301522237913","","","0","","",""
"998","I01470","SANTI DI PRETURO lato chiesa","","42.40165937750503","13.241301419762541","","","0","","",""
"999","I01480","Santi di Preturo San Donato lato golf","","42.4012751926538","13.24452009538384","","","0","","",""
"1000","I01490","Santi di Preturo San Donato fronte golf","","42.401362287443945","13.244267966654846","","","0","","",""
"1001","I01500","SANTI DI PRETURO lato centro sportivo","","42.402685342764386","13.240207104991946","","","0","","",""
"1002","I01510","SP30 di Cascina Casaline - Santi Preturo","","42.40422828857603","13.243530397040054","","","0","","",""
"1003","R00010","SS615 C.da Cerri coop.ve lato Monteluco","","42.33625099999855","13.368949999998392","","","0","","",""
"1004","R00020","SS615 C.da Cerri coop. fronte Monteluco","","42.33655099999854","13.368359999998388","","","0","","",""
"1005","R00030","SS615 C.da Cerri lato Monteluco","","42.337555999998536","13.367335999998385","","","0","","",""
"1006","R00035","SS615 C.da Cerri fronte Monteluco","","42.33726599999854","13.367594999998387","","","0","","",""
"1007","R00040","SS615 Roio Poggio fronte Corso Umberto","","42.33323099999857","13.372749999998412","","","0","","",""
"1008","R00050","SS615 Roio Poggio lato Corso Umberto","","42.33311099999856","13.372179999998409","","","0","","",""
"1009","R00060","SS615 Roio Poggio fronte chiesa S.Scolastica","","42.33226099999858","13.376089999998428","","","0","","",""
"1010","R00070","SS615 Roio Poggio lato chiesa S.Scolastica","","42.33205099999859","13.376129999998426","","","0","","",""
"1011","R00080","Roio Poggio lato chiesa Piazza Santuario","","42.332274429038186","13.380160104713257","","","0","","",""
"1012","R00090","ROIO POGGIO piazza Santuario fronte chiesa","","42.33244694792167","13.380036727752877","","","0","","",""
"1013","R00100","SR615 Roio Poggio - fronte Miramonti","","42.33385099999861","13.380079999998447","","","0","","",""
"1014","R00110","SR615 Roio Poggio - lato Miramonti","","42.33385099999861","13.38017999999845","","","0","","",""
"1015","R00120","SR615 Via Della Pineta dir. Roio","","42.33564099999861","13.380249999998448","","","0","","",""
"1016","R00130","SR615 Via Della Pineta dir. Monteluco","","42.335780999998605","13.380679999998451","","","0","","",""
"1017","R00140","MONTELUCO INGEGNERIA","","42.33676099999859","13.376429999998429","","","0","","",""
"1018","R00150","Corso Umberto Roio Poggio lato v.poste","","42.33300099999856","13.372259999998409","","","0","","",""
"1019","R00160","Corso Umberto Roio Poggio fronte v.poste","","42.332910999998575","13.372199999998406","","","0","","",""
"1020","R00170","SP35 Roio Poggio lato Villa Palitti","","42.33212099999858","13.374329999998418","","","0","","",""
"1021","R00180","SP35 Roio Poggio fronte Villa Palitti","","42.33224099999857","13.374029999998418","","","0","","",""
"1022","R00190","SP35 Roio Poggio fronte Via A. Palitti","","42.332250999998564","13.372399999998411","","","0","","",""
"1023","R00200","SP35 Roio Poggio lato Via A. Palitti","","42.3321182799922","13.371890164356591","","","0","","",""
"1024","R00210","Via Cavour Roio Piano fontane lato Sud","","42.32981099999853","13.366449999998379","","","0","","",""
"1025","R00220","Via Cavour Roio Piano fontane lato Nord","","42.32981099999852","13.365849999998375","","","0","","",""
"1026","R00230","Via Cavour Roio Piano le Prata lato Sud","","42.32933099999853","13.364499999998367","","","0","","",""
"1027","R00240","Via Cavour Roio Piano le Prata lato Nord","","42.329360999998514","13.363869999998366","","","0","","",""
"1028","R00250","Via Cavour Roio Piano lato Della Valle","","42.32841099999851","13.360249999998347","","","0","","",""
"1029","R00260","Via Cavour Roio Piano fronte Della Valle","","42.32851099999849","13.359869999998347","","","0","","",""
"1030","R00270","Via Liberazione Roio Piano lato Fonteve.","","42.32908099999848","13.356479999998328","","","0","","",""
"1031","R00280","Via Liberazione Roio Piano fronte Fontev","","42.32893099999847","13.356249999998324","","","0","","",""
"1032","R00290","SP35 Roio Piano lato via Collicigliu","","42.329230999998465","13.354259999998314","","","0","","",""
"1033","R00300","SP35 Roio Piano fronte via Collicigliu","","42.32948099999847","13.354369999998315","","","0","","",""
"1034","R00320","SP35 Santa Rufina di Roio - lato MAP","","42.33198099999848","13.356299999998326","","","0","","",""
"1035","R00330","SP35 Santa Rufina di Roio - fronte MAP","","42.33206099999848","13.356659999998328","","","0","","",""
"1036","R00340","SP35 SR615 Roio Colle front Via La Torre","","42.33806099999848","13.356799999998328","","","0","","",""
"1037","R00350","SP35 SR615 Roio Colle lato Via La Torre","","42.33847099999848","13.356149999998324","","","0","","",""
"1038","R00360","SP35 SR615 Roio Colle Fontanile l. Sud","","42.33880099999846","13.35317999999831","","","0","","",""
"1039","R00370","SP35 SR615 Roio Colle Fontanile l. Nord","","42.33902099999846","13.352809999998307","","","0","","",""
"1040","R00380","SP35 SR615 Roio Colle fronte Annunziata","","42.33921099999844","13.3511099999983","","","0","","",""
"1041","R00390","SP35 SR615 Roio Colle lato Annunziata","","42.33959099999845","13.350919999998299","","","0","","",""
"1042","R00400","SP35 SR615 Roio Colle lato piazza","","42.34158099999844","13.348849999998288","","","0","","",""
"1043","R00410","SP35 SR615 Roio Colle fronte piazza","","42.34141099999844","13.348249999998284","","","0","","",""
"1044","R00420","SP35 Roio Colle lato V. Madonna di Corte","","42.34091099999841","13.34562999999827","","","0","","",""
"1045","R00430","SP35 Roio Colle fron V.Madonna di Corte","","42.34093099999842","13.345429999998268","","","0","","",""
"1046","R00440","SP35 e/u CASE Roio 2 - dir. Roio Piano","","42.33129742578316","13.369186488559667","","","0","","",""
"1047","R00450","SP35 e/u CASE Roio 2 - dir. Roio Poggio","","42.33139261195963","13.369293751431636","","","0","","",""
"1048","R00500","SS615 Cava di Roio - la Foca - dir L'Aq","","42.34216099999853","13.365009999998371","","","0","","",""
"1049","R00510","SS615 Cava di Roio - la Foca - dir Roio","","42.34235099999853","13.36487999999837","","","0","","",""
"1050","R00520","SS615 C.da Perrotti - dir. L'Aquila","","42.34744099999856","13.372439999998411","","","0","","",""
"1051","R00530","SS615 C.da Perrotti - dir. Roio","","42.347540999998564","13.37257999999841","","","0","","",""
"1052","R00540","SS615 C.da Bernardi - dir. L'Aquila","","42.34954099999859","13.377059999998433","","","0","","",""
"1053","R00550","SS615 C.da Bernardi - dir. Roio","","42.34954099999859","13.376679999998432","","","0","","",""
"1054","R00560","SS615 C.da Piccoli - dir. L'Aquila","","42.3485409999986","13.380479999998451","","","0","","",""
"1055","R00570","SS615 C.da Piccoli - dir. Roio","","42.349080999998606","13.38029999999845","","","0","","",""
"1056","R00580","SS615 base Via Mariana - dir. L'Aquila","","42.346580999998636","13.388039999998488","","","0","","",""
"1057","R00590","SS615 base Via Mariana - dir. Roio","","42.34693099999864","13.387789999998489","","","0","","",""
"1058","R00620","CASE ROIO","","42.33293099999863","13.385679999998477","","","0","","",""
"1059","R00630","CASE ROIO 2","","42.33028899999855","13.371083999998401","","","0","","",""
